name	Snippet	styleUrl	longitude	latitude	altitude	Type	Region
Wando	Record 325	#defaultStyleMap	126.6833	34.35	0	Hydrothermal	Korean Peninsula
Georgina Basin	Record 52	#defaultStyleMap	139.9667	-21.8833	0	Sedimentary	Australia
Wheal Jane	Record 1880	#defaultStyleMap	-5.2	50.2333333333333	0	Hydrothermal	United Kingdom
Kaldygajtinskoe	Record 1979	#defaultStyleMap	53.6058333333333	49.8063888888889	0	Sedimentary	Kazakhstan
Imiter	Record 2548	#defaultStyleMap	-5.8336	31.35	0	Hydrothermal	Morocco
Altanboom	Record 379	#defaultStyleMap	98.5	50.3333	0	Metamorphic	Mongolia
Udon Thani- North	Record 450	#defaultStyleMap	103.0833	17.5	0	Sedimentary	Thailand
Udon Thani- South	Record 451	#defaultStyleMap	102.6667	17.3333	0	Sedimentary	Thailand
Cape Flattery	Record 55	#defaultStyleMap	145.25	-14.9333	0	Surficial	Australia
Bayfield	Record 57	#defaultStyleMap	150.7667	-22.8	0	Surficial	Australia
Cataby	Record 58	#defaultStyleMap	115.5167	-30.7167	0	Surficial	Australia
Chetwynd	Record 59	#defaultStyleMap	141.4167	-37.2167	0	Surficial	Australia
Coojarloo	Record 60	#defaultStyleMap	115.3333	-30.6667	0	Surficial	Australia
Eneabba	Record 61	#defaultStyleMap	115.2667	-29.9	0	Surficial	Australia
Frazer Island	Record 62	#defaultStyleMap	153.25	-24.6667	0	Surficial	Australia
Ginko	Record 63	#defaultStyleMap	142.15	-33.3833	0	Surficial	Australia
Mindarie	Record 64	#defaultStyleMap	140.2167	-34.8167	0	Surficial	Australia
North Stradbroke Island	Record 65	#defaultStyleMap	153.45	-27.5833	0	Surficial	Australia
Stradbroke Island	Record 66	#defaultStyleMap	153.9	-27.5	0	Surficial	Australia
WIM 150	Record 67	#defaultStyleMap	142.2167	-36.7167	0	Surficial	Australia
Moiskal Island	Record 74	#defaultStyleMap	91.9167	21.3333	0	Surficial	Bangladesh
Puqian	Record 221	#defaultStyleMap	110.5833	20.0333	0	Surficial	China
Fuhezhong	Record 229	#defaultStyleMap	111.5167	24.5333	0	Surficial	China
Chatrapur	Record 272	#defaultStyleMap	84.95	19.3	0	Surficial	India
Chavara	Record 273	#defaultStyleMap	76.5	9	0	Surficial	India
Manavala Kurichi	Record 274	#defaultStyleMap	77.25	8.1667	0	Surficial	India
Nindakara	Record 275	#defaultStyleMap	76.5833	8.6667	0	Surficial	India
Vishakhapatnam	Record 276	#defaultStyleMap	83.5333	17.8333	0	Surficial	India
Bukit/Sungai	Record 335	#defaultStyleMap	103.0667	3.8833	0	Surficial	Malaysia
Kinta Valley	Record 336	#defaultStyleMap	101	4.3	0	Surficial	Malaysia
Pahang/Selangor	Record 337	#defaultStyleMap	101.6667	3.8333	0	Surficial	Malaysia
Parengarenga	Record 399	#defaultStyleMap	172.9587	-31.5283	0	Surficial	New Zealand
Barrytown	Record 400	#defaultStyleMap	171.3167	-42.208	0	Surficial	New Zealand
Westport	Record 401	#defaultStyleMap	171.55	-41.7833	0	Surficial	New Zealand
Pulmoddai	Record 447	#defaultStyleMap	80.95	8.95	0	Surficial	Sri Lanka
Nakhon Si Thammarat	Record 454	#defaultStyleMap	99.8	9.05	0	Surficial	Thailand
Phuket Area, Offsh	Record 455	#defaultStyleMap	98.25	7.9167	0	Surficial	Thailand
Ranong Area	Record 456	#defaultStyleMap	98.6333	9.85	0	Surficial	Thailand
Takua Pa/Phang Nga	Record 457	#defaultStyleMap	98.2833	8.8333	0	Surficial	Thailand
Cat Khanh	Record 464	#defaultStyleMap	105.2	13.5	0	Surficial	Vietnam
Ke Sung	Record 465	#defaultStyleMap	107.5833	16.5	0	Surficial	Vietnam
Mi Tho	Record 466	#defaultStyleMap	109.25	13.75	0	Surficial	Vietnam
Cartersville district	Record 841	#defaultStyleMap	-84.767	34.15	0	Surficial	United States
Kaiyang	Record 213	#defaultStyleMap	106.9167	27.05	0	Unclassified	China
Chichibu	Record 311	#defaultStyleMap	138.815	36.0172	0	Unclassified	Japan
Khajuu Ulaan	Record 351	#defaultStyleMap	109.8667	46.2667	0	Unclassified	Mongolia
Hubsgul Basin	Record 368	#defaultStyleMap	100.1667	50.6833	0	Unclassified	Mongolia
Kharidhunga	Record 389	#defaultStyleMap	85.9417	27.6333	0	Unclassified	Nepal
Lao Cai Basin	Record 461	#defaultStyleMap	103.95	22.5	0	Unclassified	Vietnam
Glomel	Record 1919	#defaultStyleMap	3.4	48.2166666666667	0	Unclassified	France
Black Canyon	Record 633	#defaultStyleMap	-112.21	34.12	0	Igneous	United States
Mountain Green	Record 847	#defaultStyleMap	-111.783	41.15	0	Unclassified	United States
Wind Mountain	Record 634	#defaultStyleMap	-105.515	32.025	0	Igneous	United States
McClure Mountain Complex	Record 635	#defaultStyleMap	-105.467	38.35	0	Igneous	United States
Iron Hill (Powderhorn, Cebolla Creek)	Record 636	#defaultStyleMap	-107.05	38.25	0	Igneous	United States
Deep Creek	Record 637	#defaultStyleMap	-119.95	42.05	0	Igneous	United States
Gem Park	Record 640	#defaultStyleMap	-105.55	38.267	0	Igneous	United States
Tucker - Poplar Lake deposit	Record 644	#defaultStyleMap	-90.667	48.167	0	Igneous	United States
Spor Mountain	Record 468	#defaultStyleMap	-113.217	39.707	0	Hydrothermal	United States
Yichang	Record 216	#defaultStyleMap	111.3333	30.8	0	Sedimentary	China
Molodiezhnoe	Record 1455	#defaultStyleMap	58.5166666666667	50.35	0	Igneous	Kazakhstan
Baltic	Record 471	#defaultStyleMap	-88.634	47.065	0	Hydrothermal	United States
Khewra Salt Mines	Record 411	#defaultStyleMap	73.0167	32.65	0	Sedimentary	Pakistan
Arctic Camp	Record 599	#defaultStyleMap	-156.386	67.181	0	Hydrothermal	United States
Jiawula	Record 223	#defaultStyleMap	116.3333	48.8	0	Metamorphic	China
Dachang	Record 228	#defaultStyleMap	107.8333	24.8333	0	Metamorphic	China
Daijishan	Record 234	#defaultStyleMap	114.4	24.6333	0	Metamorphic	China
Damingshan	Record 235	#defaultStyleMap	108.3667	23.6	0	Metamorphic	China
Yaogangxian	Record 239	#defaultStyleMap	113.3	25.65	0	Metamorphic	China
Tengchong	Record 240	#defaultStyleMap	98.4667	25.0333	0	Metamorphic	China
Tiegsongshan	Record 241	#defaultStyleMap	124.3167	43.3	0	Metamorphic	China
Belkappahar	Record 277	#defaultStyleMap	73.4333	25.7667	0	Metamorphic	India
Khalzanburegtei	Record 366	#defaultStyleMap	91.9333	48.3667	0	Metamorphic	Mongolia
Kalabagh	Record 412	#defaultStyleMap	71.5667	32.9667	0	Sedimentary	Pakistan
Chicote GrandeTaminani	Record 892	#defaultStyleMap	-66.8497	-17.3153	0	Hydrothermal	Bolivia
Atlantic coastal plain phosphate province, Ona	Record 717	#defaultStyleMap	-81.98	27.52	0	Sedimentary	United States
Comstock Lode	Record 543	#defaultStyleMap	-119.59	39.32	0	Hydrothermal	United States
Chocaya	Record 893	#defaultStyleMap	-66.3036	-20.9658	0	Hydrothermal	Bolivia
Big Ben - Niehart	Record 585	#defaultStyleMap	-110.733	46.95	0	Hydrothermal	United States
Cave Peak	Record 586	#defaultStyleMap	-104.883	31.433	0	Hydrothermal	United States
Climax	Record 587	#defaultStyleMap	-106.167	39.367	0	Hydrothermal	United States
Henderson - Urad	Record 588	#defaultStyleMap	-105.833	39.75	0	Hydrothermal	United States
Mount Emmons - Redwell Basin	Record 589	#defaultStyleMap	-107.067	38.883	0	Hydrothermal	United States
Mount Hope	Record 590	#defaultStyleMap	-116.167	39.783	0	Hydrothermal	United States
Pine Grove	Record 591	#defaultStyleMap	-113.606	38.336	0	Hydrothermal	United States
Quartz Hill	Record 592	#defaultStyleMap	-130.467	55.4	0	Hydrothermal	United States
Questa	Record 593	#defaultStyleMap	-105.5	36.683	0	Hydrothermal	United States
Thompson Creek	Record 594	#defaultStyleMap	-114.583	44.333	0	Hydrothermal	United States
Cumo	Record 596	#defaultStyleMap	-115.783	44	0	Hydrothermal	United States
Mount Tolman	Record 597	#defaultStyleMap	-118.7	48.05	0	Hydrothermal	United States
Copper Queen	Record 598	#defaultStyleMap	-109.91	31.43	0	Hydrothermal	United States
Rocky Range	Record 600	#defaultStyleMap	-113.063	38.45	0	Hydrothermal	United States
Leadville	Record 601	#defaultStyleMap	-106.25	39.25	0	Hydrothermal	United States
Greens Creek	Record 602	#defaultStyleMap	-134.619	58.077	0	Hydrothermal	United States
Red Mountain - Sneffels - Telluride	Record 603	#defaultStyleMap	-107.75	37.958	0	Hydrothermal	United States
Presidio	Record 604	#defaultStyleMap	-104.33	29.81	0	Hydrothermal	United States
Bunker Hill - Last Chance	Record 605	#defaultStyleMap	-116.138	47.536	0	Hydrothermal	United States
Galena	Record 606	#defaultStyleMap	-115.965	47.477	0	Hydrothermal	United States
Lucky Friday	Record 607	#defaultStyleMap	-115.78	47.471	0	Hydrothermal	United States
Creede (Amethyst, Bulldog etc. veins)	Record 608	#defaultStyleMap	-106.933	37.875	0	Hydrothermal	United States
Aspen	Record 609	#defaultStyleMap	-106.833	39.167	0	Hydrothermal	United States
Sunshine	Record 610	#defaultStyleMap	-116.068	47.501	0	Hydrothermal	United States
Bingham Canyon (polymetallic replacement)	Record 611	#defaultStyleMap	-112.14	40.54	0	Hydrothermal	United States
Park City	Record 612	#defaultStyleMap	-111.51	40.62	0	Hydrothermal	United States
Tintic - East Tintic	Record 613	#defaultStyleMap	-112.1	39.91	0	Hydrothermal	United States
Crandon	Record 614	#defaultStyleMap	-88.926	45.483	0	Hydrothermal	United States
Beaverhead	Record 615	#defaultStyleMap	-112.301	45.224	0	Hydrothermal	United States
Regal (Keystone)	Record 616	#defaultStyleMap	-112.425	45.172	0	Hydrothermal	United States
Treasure (Treasure State, Treasure Chest	Record 617	#defaultStyleMap	-112.309	45.228	0	Hydrothermal	United States
Yellowstone (Johnny Gulch, Cyprus, Cameron, Montana Talc)	Record 618	#defaultStyleMap	-111.73	45.077	0	Hydrothermal	United States
Eagle (Slate Creek)	Record 647	#defaultStyleMap	-142.5	64.567	0	Metamorphic	United States
Gore Mountain	Record 648	#defaultStyleMap	-74.054	43.679	0	Metamorphic	United States
Ruby Mountain Quarry	Record 649	#defaultStyleMap	-74.112	43.736	0	Metamorphic	United States
Addie (Smoky Mtns.)	Record 650	#defaultStyleMap	-83.159	35.399	0	Metamorphic	United States
Twin Sisters Mountain (Cascade Mtns.)	Record 651	#defaultStyleMap	-121.958	48.708	0	Metamorphic	United States
Hunter Mountain	Record 652	#defaultStyleMap	-117.517	36.533	0	Metamorphic	United States
Oak Hill Mine Site	Record 653	#defaultStyleMap	-73.58	44.304	0	Metamorphic	United States
Willsboro Mine (Fox Knoll Mine)	Record 654	#defaultStyleMap	-73.432	44.346	0	Metamorphic	United States
Argenta	Record 656	#defaultStyleMap	-116.733	40.633	0	Sedimentary	United States
Greystone	Record 657	#defaultStyleMap	-116.901	40.281	0	Sedimentary	United States
Mountain Springs	Record 658	#defaultStyleMap	-117.041	40.315	0	Sedimentary	United States
Rossi	Record 659	#defaultStyleMap	-116.719	40.599	0	Sedimentary	United States
Snoose Creek	Record 660	#defaultStyleMap	-115.039	41.502	0	Sedimentary	United States
Stormy Creek	Record 661	#defaultStyleMap	-115.198	41.523	0	Sedimentary	United States
Basalt	Record 662	#defaultStyleMap	-118.219	38.011	0	Sedimentary	United States
Burney	Record 663	#defaultStyleMap	-121.683	41.033	0	Sedimentary	United States
Fernley	Record 664	#defaultStyleMap	-119.25	39.6	0	Sedimentary	United States
Lovelock	Record 665	#defaultStyleMap	-118.797	40.267	0	Sedimentary	United States
Lompoc	Record 667	#defaultStyleMap	-120.345	34.582	0	Sedimentary	United States
Khothakpa	Record 76	#defaultStyleMap	91.4	27.0167	0	Sedimentary	Bhutan
Nam Pathene Valley	Record 333	#defaultStyleMap	104.6167	17.9333	0	Surficial	Laos
Qaidam Qarhan	Record 103	#defaultStyleMap	95	37.5	0	Sedimentary	China
Jintan	Record 170	#defaultStyleMap	119.5667	31.75	0	Sedimentary	China
Kunming (Junning)	Record 214	#defaultStyleMap	102.6833	25.0667	0	Sedimentary	China
Wengfu	Record 215	#defaultStyleMap	107.55	26.7	0	Sedimentary	China
Savannakhet	Record 328	#defaultStyleMap	105.1833	16.5	0	Sedimentary	Laos
Baruun Tserd	Record 358	#defaultStyleMap	91.7167	50.4167	0	Sedimentary	Mongolia
Davst uul	Record 359	#defaultStyleMap	93.3333	50.3333	0	Sedimentary	Mongolia
Burenhan	Record 367	#defaultStyleMap	99.95	49.8	0	Sedimentary	Mongolia
Hubsugul	Record 369	#defaultStyleMap	100.1667	50.6833	0	Sedimentary	Mongolia
Tsagaan Nuur	Record 370	#defaultStyleMap	99.3833	51.2333	0	Sedimentary	Mongolia
Uhagol	Record 371	#defaultStyleMap	100.0333	51.7	0	Sedimentary	Mongolia
Jatta Salt Mines	Record 410	#defaultStyleMap	71.3333	33.3333	0	Sedimentary	Pakistan
Warcha Salt Mine	Record 413	#defaultStyleMap	72.75	32.6	0	Sedimentary	Pakistan
Loe Shilman	Record 416	#defaultStyleMap	71.1411	34.2208	0	Sedimentary	Pakistan
Khon Kaen	Record 448	#defaultStyleMap	102.8667	16.3333	0	Sedimentary	Thailand
Ban Houei Sai	Record 332	#defaultStyleMap	100.3833	20.35	0	Gemstone	Laos
Atlantic coastal plain phosphate province	Record 697	#defaultStyleMap	-82.036	27.888	0	Sedimentary	United States
Atlantic coastal plain phosphate province, Blake Plateau/Charleston Bump	Record 698	#defaultStyleMap	-79	31.5	0	Sedimentary	United States
Atlantic coastal plain phosphate province, Charleston - Beaufort District	Record 699	#defaultStyleMap	-80	32.75	0	Sedimentary	United States
Atlantic coastal plain phosphate province, East Florida phosphate district	Record 700	#defaultStyleMap	-80.781	27.8	0	Sedimentary	United States
Atlantic coastal plain phosphate province, Gardinier Mine (Cargill Mine)	Record 701	#defaultStyleMap	-81.763	27.667	0	Sedimentary	United States
Atlantic coastal plain phosphate province, Hopewell	Record 702	#defaultStyleMap	-82.106	27.925	0	Sedimentary	United States
Atlantic coastal plain phosphate province, Land Pebble district, Fort Green	Record 703	#defaultStyleMap	-82.007	27.668	0	Sedimentary	United States
Atlantic coastal plain phosphate province, Land Pebble district, Fort Meade Mine (Mobil)	Record 704	#defaultStyleMap	-81.807	27.766	0	Sedimentary	United States
Atlantic coastal plain phosphate province, Land Pebble district, Four Corners	Record 705	#defaultStyleMap	-82.091	27.664	0	Sedimentary	United States
Atlantic coastal plain phosphate province, Land Pebble district, Haynsworth Mine	Record 706	#defaultStyleMap	-82.014	27.758	0	Sedimentary	United States
Caracoles-Pacuni	Record 887	#defaultStyleMap	-67.3322	-16.9325	0	Hydrothermal	Bolivia
Atlantic coastal plain phosphate province, Land Pebble district, Hookers Prairie	Record 707	#defaultStyleMap	-81.939	27.781	0	Sedimentary	United States
Atlantic coastal plain phosphate province, Land Pebble district, Payne Creek	Record 708	#defaultStyleMap	-81.941	27.69	0	Sedimentary	United States
Atlantic coastal plain phosphate province, Land Pebble district, Rockland	Record 709	#defaultStyleMap	-81.867	27.754	0	Sedimentary	United States
Atlantic coastal plain phosphate province, Land Pebble district, Saddle Creek	Record 710	#defaultStyleMap	-81.834	28.033	0	Sedimentary	United States
Atlantic coastal plain phosphate province, Land Pebble district, Silver City	Record 711	#defaultStyleMap	-81.903	27.8	0	Sedimentary	United States
Atlantic coastal plain phosphate province, Land Pebble district, South Fort Meade	Record 712	#defaultStyleMap	-81.763	27.667	0	Sedimentary	United States
Atlantic coastal plain phosphate province, North Carolina district, Lee Creek Mine	Record 714	#defaultStyleMap	-76.794	35.384	0	Sedimentary	United States
Atlantic coastal plain phosphate province, North Carolina district, North Carolina Phosphate Corp.	Record 715	#defaultStyleMap	-76.771	35.333	0	Sedimentary	United States
Atlantic coastal plain phosphate province, North Florida - South Georgia district, Swift Creek Mine	Record 716	#defaultStyleMap	-82.857	30.452	0	Sedimentary	United States
Zhanet	Record 1490	#defaultStyleMap	74.3569444444444	47.5386111111111	0	Igneous	Kazakhstan
Atlantic coastal plain phosphate province, Onslow Embayment/Frying Pan Phosphate District	Record 718	#defaultStyleMap	-77.5	33.75	0	Sedimentary	United States
Atlantic coastal plain phosphate province, Onslow Embayment/Northeast Onslow Bay District	Record 719	#defaultStyleMap	-76.75	34.5	0	Sedimentary	United States
Atlantic coastal plain phosphate province, Pine Level	Record 720	#defaultStyleMap	-81.991	27.25	0	Sedimentary	United States
Atlantic coastal plain phosphate province, Raine	Record 721	#defaultStyleMap	-81.811	27.725	0	Sedimentary	United States
Atlantic coastal plain phosphate province, Savannah District	Record 722	#defaultStyleMap	-81.083	32.05	0	Sedimentary	United States
Atlantic coastal plain phosphate province, South Florida phosphate district	Record 723	#defaultStyleMap	-82.208	27.519	0	Sedimentary	United States
Khanguet	Record 2111	#defaultStyleMap	8.1	35.58	0	Unclassified	Algeria
Kings Mountain	Record 632	#defaultStyleMap	-81.342	35.25	0	Igneous	United States
Atlantic coastal plain phosphate province, Suwanee River Mine	Record 724	#defaultStyleMap	-82.777	30.437	0	Sedimentary	United States
Aurora District	Record 725	#defaultStyleMap	-76.5	35.5	0	Sedimentary	United States
Lisburne Group	Record 726	#defaultStyleMap	-155.75	68.633	0	Sedimentary	United States
Western Phosphate Field, Uinta Mountains, Park City Formation, Vernal	Record 727	#defaultStyleMap	-109.491	40.607	0	Sedimentary	United States
Atlantic coastal plain phosphate province, Bronson (East Ocala Hard Rock) District	Record 728	#defaultStyleMap	-82.5	29.333	0	Sedimentary	United States
Atlantic coastal plain phosphate province, Ridgeland Basin - Beaufort District	Record 729	#defaultStyleMap	-80.917	32.583	0	Sedimentary	United States
Atlantic coastal plain phosphate province, Steinhatchee (N. Ocala Hard Rock) District	Record 730	#defaultStyleMap	-83.317	29.9	0	Sedimentary	United States
Western Phosphate Field, Phosphoria Formation, Conda	Record 731	#defaultStyleMap	-111.527	42.728	0	Sedimentary	United States
Western Phosphate Field, Phosphoria Formation, Deseret Basin - - Laketown	Record 732	#defaultStyleMap	-111.29	41.827	0	Sedimentary	United States
Western Phosphate Field, Phosphoria Formation, Enoch Valley	Record 733	#defaultStyleMap	-111.407	42.881	0	Sedimentary	United States
Western Phosphate Field, Phosphoria Formation, Montana phosphate district	Record 734	#defaultStyleMap	-111.957	45.041	0	Sedimentary	United States
Western Phosphate Field, Phosphoria Formation, Smoky Canyon	Record 735	#defaultStyleMap	-111.13	42.67	0	Sedimentary	United States
Amargosa Valley	Record 736	#defaultStyleMap	-116.433	36.45	0	Sedimentary	United States
Hardin district	Record 737	#defaultStyleMap	-108.17	44.58	0	Sedimentary	United States
Northern Black Hills district	Record 738	#defaultStyleMap	-108.17	44.58	0	Sedimentary	United States
Sublette Range (combined)	Record 739	#defaultStyleMap	-110.983	42.2	0	Sedimentary	United States
Jacupiranga	Record 930	#defaultStyleMap	-48.0833	-24.7	0	Igneous	Brazil
Ash Meadows	Record 740	#defaultStyleMap	-116.25	35.95	0	Sedimentary	United States
Bear River	Record 741	#defaultStyleMap	-111.381	42.424	0	Sedimentary	United States
Bowie	Record 742	#defaultStyleMap	-109.367	32.45	0	Sedimentary	United States
Pirquitas	Record 873	#defaultStyleMap	-66.5308	-22.6825	0	Hydrothermal	Argentina
Anadarko Basin - Weatherford - Clinton district	Record 753	#defaultStyleMap	-98.93	35.54	0	Sedimentary	United States
Death Valley	Record 754	#defaultStyleMap	-116.684	36.342	0	Sedimentary	United States
Gerstley I, II	Record 756	#defaultStyleMap	-116.232	36.018	0	Sedimentary	United States
Kramer (Boron)	Record 757	#defaultStyleMap	-117.687	35.041	0	Sedimentary	United States
Rho (Kramer Junction)	Record 758	#defaultStyleMap	-117.547	34.767	0	Sedimentary	United States
Smackover Formation	Record 759	#defaultStyleMap	-92.66	33.22	0	Sedimentary	United States
Apex	Record 760	#defaultStyleMap	-114.88	36.221	0	Sedimentary	United States
Anadarko Basin - Blaine Formation	Record 761	#defaultStyleMap	-98.364	35.925	0	Sedimentary	United States
Anadarko Basin - Cloud Chief Formation	Record 762	#defaultStyleMap	-98.255	34.832	0	Sedimentary	United States
Vinh Mi (Vinh My)	Record 467	#defaultStyleMap	107.75	16.3333	0	Surficial	Vietnam
Fort Dodge area	Record 763	#defaultStyleMap	-94.156	42.493	0	Sedimentary	United States
Michigan Basin - Tawas	Record 764	#defaultStyleMap	-83.675	44.263	0	Sedimentary	United States
Christmas Island	Record 51	#defaultStyleMap	105.7158	-10.4219	0	Surficial	Australia
Tsagaan Tsav	Record 384	#defaultStyleMap	91.2333	45.65	0	Unclassified	Mongolia
Xinyang	Record 211	#defaultStyleMap	114.0833	32.05	0	Unclassified	China
Three Springs	Record 56	#defaultStyleMap	115.8609	-29.5047	0	Unclassified	Australia
Plaster City	Record 765	#defaultStyleMap	-116.088	33.033	0	Sedimentary	United States
White Mesa	Record 766	#defaultStyleMap	-106.797	35.52	0	Sedimentary	United States
Appalachian Basin	Record 767	#defaultStyleMap	-79.533	41.233	0	Sedimentary	United States
Appalachian Basin - Retsoff	Record 768	#defaultStyleMap	-77.858	42.778	0	Sedimentary	United States
Mississippi Basin	Record 769	#defaultStyleMap	-89.21	31.46	0	Sedimentary	United States
Bear Valley	Record 828	#defaultStyleMap	-115.4	44.35	0	Surficial	United States
Texas - Louisiana Coastal Basin - Avery Island	Record 770	#defaultStyleMap	-91.909	29.893	0	Sedimentary	United States
Texas - Louisiana Coastal Basin - Belle Isle (Patterson)	Record 771	#defaultStyleMap	-91.351	29.709	0	Sedimentary	United States
Texas - Louisiana Coastal Basin - Jefferson Island	Record 772	#defaultStyleMap	-91.969	29.971	0	Sedimentary	United States
Maicuru	Record 933	#defaultStyleMap	-54.217	-0.467	0	Igneous	Brazil
Michigan Basin - Detroit River Group	Record 774	#defaultStyleMap	-86.18	44.241	0	Sedimentary	United States
Michigan Basin	Record 775	#defaultStyleMap	-84.233	43.617	0	Sedimentary	United States
Supai Salt Basin	Record 777	#defaultStyleMap	-112.338	33.537	0	Sedimentary	United States
South Texas Basin - Palangana Salt Dome	Record 778	#defaultStyleMap	-98.394	27.648	0	Sedimentary	United States
Anadarko Basin - Morrowan Formation	Record 779	#defaultStyleMap	-99.383	36.433	0	Sedimentary	United States
Silver Peak (Clayton Valley)	Record 780	#defaultStyleMap	-117.633	37.75	0	Sedimentary	United States
Searles Lake	Record 781	#defaultStyleMap	-118.4	35.777	0	Sedimentary	United States
Santo Ni	Record 434	#defaultStyleMap	120.6556	16.4903	0	Hydrothermal	Philippines
Green River Formation	Record 803	#defaultStyleMap	-109.368	41.528	0	Sedimentary	United States
Green River Formation, FMC Westvaco Mine #1,#2	Record 804	#defaultStyleMap	-109.814	41.622	0	Sedimentary	United States
Green River Formation, General Chemical Corp., Allied Chemical	Record 805	#defaultStyleMap	-109.74	41.599	0	Sedimentary	United States
Green River Formation, OCI Chemical Corp., Big Island	Record 806	#defaultStyleMap	-109.692	41.718	0	Sedimentary	United States
Green River Formation, Solvay Minerals, Inc.	Record 807	#defaultStyleMap	-109.76	41.5	0	Sedimentary	United States
Green River Formation, Texas Gulf, Inc.	Record 808	#defaultStyleMap	-109.908	41.679	0	Sedimentary	United States
Piceance Creek	Record 809	#defaultStyleMap	-108.36	39.957	0	Sedimentary	United States
Lake Macleod	Record 36	#defaultStyleMap	113.6333	-24.1667	0	Sedimentary	Australia
Uinta Basin	Record 810	#defaultStyleMap	-109.542	40.225	0	Sedimentary	United States
Texas - Louisiana Coastal Basin - Main Pass	Record 812	#defaultStyleMap	-88.772	29.275	0	Sedimentary	United States
Trail Ridge	Record 840	#defaultStyleMap	-82.033	30.033	0	Surficial	United States
Alder Gulch	Record 813	#defaultStyleMap	-112.002	45.324	0	Surficial	United States
Colquiri	Record 896	#defaultStyleMap	-67.1242	-17.3758	0	Hydrothermal	Bolivia
Emerald Creek - Carpenter Creek Emerald Placers	Record 814	#defaultStyleMap	-116.326	47.072	0	Surficial	United States
Gold Fork - Little Valley	Record 827	#defaultStyleMap	-115.967	44.683	0	Surficial	United States
North Camden (Kerr - McGee deposit)	Record 830	#defaultStyleMap	-88.183	36.117	0	Surficial	United States
Oak Grove	Record 831	#defaultStyleMap	-88.167	36.383	0	Surficial	United States
Green Cove Springs - Maxville	Record 837	#defaultStyleMap	-81.717	29.867	0	Surficial	United States
Hilton Head Island	Record 838	#defaultStyleMap	-80.733	32.2	0	Surficial	United States
Caracota	Record 888	#defaultStyleMap	-65.9086	-20.0869	0	Hydrothermal	Bolivia
Lulaton	Record 839	#defaultStyleMap	-81.9	31.217	0	Surficial	United States
Spruce Pine	Record 843	#defaultStyleMap	-82.133	35.933	0	Surficial	United States
Chojlla	Record 894	#defaultStyleMap	-67.7808	-16.398	0	Hydrothermal	Bolivia
Brown - rock phosphate district	Record 752	#defaultStyleMap	-87.185	35.659	0	Surficial	United States
Hahns Peak	Record 846	#defaultStyleMap	-106.929	40.842	0	Unclassified	United States
No Agua Peaks (El Grande, Tres Piedras)	Record 849	#defaultStyleMap	-105.95	36.75	0	Unclassified	United States
Cerro Pelado	Record 857	#defaultStyleMap	-69.167	-34.8	0	Sedimentary	Argentina
Cordon Pedernal	Record 859	#defaultStyleMap	-68.717	-31.933	0	Sedimentary	Argentina
El Aguliar	Record 861	#defaultStyleMap	-65.7	-23.25	0	Hydrothermal	Argentina
Farallon Negro	Record 863	#defaultStyleMap	-66.68	-27.32	0	Hydrothermal	Argentina
Isabelita, Sulfa	Record 864	#defaultStyleMap	-68.1667	-25.0805	0	Sedimentary	Argentina
Loma Blanca	Record 867	#defaultStyleMap	-66.4416	-23.0583	0	Sedimentary	Argentina
Serrania de Sijes	Record 880	#defaultStyleMap	-66.6791	-24.5847	0	Sedimentary	Argentina
Sonia	Record 881	#defaultStyleMap	-66.695	-24.6813	0	Sedimentary	Argentina
Tincalayu	Record 884	#defaultStyleMap	-67.05	-25.2667	0	Sedimentary	Argentina
Cerro Rico de Potosi	Record 889	#defaultStyleMap	-65.7467	-19.6152	0	Hydrothermal	Bolivia
Chambillaya	Record 891	#defaultStyleMap	-67.2119	-17.0019	0	Hydrothermal	Bolivia
Chorolque	Record 895	#defaultStyleMap	-66.0322	-20.9214	0	Hydrothermal	Bolivia
Huanuni	Record 898	#defaultStyleMap	-66.8225	-18.2719	0	Hydrothermal	Bolivia
Kami	Record 899	#defaultStyleMap	-66.8292	-17.388	0	Hydrothermal	Bolivia
Llallagua, Siglo XX	Record 901	#defaultStyleMap	-66.5928	-18.4394	0	Hydrothermal	Bolivia
Pulacayo	Record 902	#defaultStyleMap	-66.6833	-20.38	0	Hydrothermal	Bolivia
Salar de Uyuni	Record 904	#defaultStyleMap	-67.5	-20.1666	0	Sedimentary	Bolivia
San Cristobal	Record 905	#defaultStyleMap	-67.2061	-21.0975	0	Hydrothermal	Bolivia
Tazna	Record 907	#defaultStyleMap	-66.1906	-20.6158	0	Hydrothermal	Bolivia
Vilico	Record 908	#defaultStyleMap	-67.4903	-16.8719	0	Hydrothermal	Bolivia
Aracuai	Record 911	#defaultStyleMap	-41.933	-16.717	0	Igneous	Brazil
Araxá	Record 913	#defaultStyleMap	-46.933	-19.633	0	Igneous	Brazil
Azul/Carajas	Record 914	#defaultStyleMap	-50.35	-6.1333	0	Surficial	Brazil
Boa Vista	Record 916	#defaultStyleMap	-41.351	-14.162	0	Metamorphic	Brazil
Brumadinho	Record 918	#defaultStyleMap	-62.4167	-9.55	0	Surficial	Brazil
Brumado	Record 919	#defaultStyleMap	-41.6833	-14.1333	0	Metamorphic	Brazil
Cabeceiras	Record 920	#defaultStyleMap	-41.701	-14.157	0	Metamorphic	Brazil
Canaan	Record 922	#defaultStyleMap	-43.2667	-22.75	0	Igneous	Brazil
Catalao I	Record 924	#defaultStyleMap	-47.8	-18.133	0	Igneous	Brazil
Catiboaba	Record 925	#defaultStyleMap	-41.58	-14.181	0	Metamorphic	Brazil
Maraba	Record 934	#defaultStyleMap	-50.4167	-5.8333	0	Hydrothermal	Brazil
Marau	Record 935	#defaultStyleMap	-38.9333	-14.0833	0	Sedimentary	Brazil
Morro dos Seis Lagos	Record 937	#defaultStyleMap	-66.4	-0.633	0	Igneous	Brazil
Mucuri River Valley	Record 939	#defaultStyleMap	-41.4333	-17.75	0	Igneous	Brazil
Nova Era area	Record 941	#defaultStyleMap	-43.05	-19.5833	0	Hydrothermal	Brazil
Ouro Preto	Record 943	#defaultStyleMap	-42.6167	-20.4167	0	Hydrothermal	Brazil
Pedra Azul (Salto Divisa)	Record 948	#defaultStyleMap	-41.133	-15.883	0	Metamorphic	Brazil
Pedra Preta	Record 949	#defaultStyleMap	-41.286	-14.136	0	Metamorphic	Brazil
Pitinga	Record 951	#defaultStyleMap	-59.9167	-0.6647	0	Surficial	Brazil
Ponta Grossa-Castro	Record 953	#defaultStyleMap	-49.9167	-25.1	0	Hydrothermal	Brazil
Rondonia	Record 957	#defaultStyleMap	-63	-11	0	Surficial	Brazil
Salitre I	Record 958	#defaultStyleMap	-46.75	-19	0	Igneous	Brazil
Salto da Divisa	Record 960	#defaultStyleMap	-39.9667	-16	0	Metamorphic	Brazil
Seis Lagoas	Record 962	#defaultStyleMap	-66.6833	0.3167	0	Igneous	Brazil
Serra de Buritirama	Record 963	#defaultStyleMap	-50.2167	-5.65	0	Surficial	Brazil
Serro do Navio/Amapá	Record 966	#defaultStyleMap	-52	-1	0	Surficial	Brazil
Tapira	Record 967	#defaultStyleMap	-46.833	-19.867	0	Igneous	Brazil
Urucum mine	Record 970	#defaultStyleMap	-57.55	-19.1333	0	Surficial	Brazil
Vera Cruz	Record 972	#defaultStyleMap	-38.7667	-13.05	0	Sedimentary	Brazil
Big Whopper	Record 978	#defaultStyleMap	-94.5	50.2667	0	Igneous	Canada
Black Crystal	Record 980	#defaultStyleMap	-117.7667	49.775	0	Metamorphic	Canada
Blue Mountain	Record 981	#defaultStyleMap	-77.8833	44.4333	0	Igneous	Canada
Cassiar Mountains	Record 989	#defaultStyleMap	-129.8167	59.3167	0	Metamorphic	Canada
Salar de Arizaro	Record 875	#defaultStyleMap	-67.75	-24.7	0	Sedimentary	Argentina
Cobalt	Record 992	#defaultStyleMap	-79.7167	47.3833	0	Hydrothermal	Canada
East Milford	Record 1004	#defaultStyleMap	-63.4186	45.0102	0	Sedimentary	Canada
Endako	Record 1006	#defaultStyleMap	-125.1167	54.0333	0	Hydrothermal	Canada
Equity Silver	Record 1007	#defaultStyleMap	-126.1167	54.1667	0	Hydrothermal	Canada
Glencoe	Record 1020	#defaultStyleMap	-61.2642	45.9136	0	Sedimentary	Canada
Goderich Mine	Record 1021	#defaultStyleMap	-81.7	43.7333	0	Sedimentary	Canada
Hillsborough area	Record 1024	#defaultStyleMap	-64.65	45.9167	0	Sedimentary	Canada
Jeffrey	Record 1029	#defaultStyleMap	-71.95	45.7667	0	Metamorphic	Canada
Keno Hill	Record 1033	#defaultStyleMap	-135.3	63.9167	0	Hydrothermal	Canada
Kewstoke	Record 1035	#defaultStyleMap	-61.2531	45.9817	0	Sedimentary	Canada
Lac Tio (Allard Lake)	Record 1041	#defaultStyleMap	-63.4167	50.55	0	Igneous	Canada
Logtung	Record 1046	#defaultStyleMap	-131.6167	60.0167	0	Hydrothermal	Canada
Mactung	Record 1048	#defaultStyleMap	-130.1833	63.2833	0	Hydrothermal	Canada
Madeleine Archipelago	Record 1049	#defaultStyleMap	-61.7333	47.4333	0	Sedimentary	Canada
Marysville	Record 1051	#defaultStyleMap	-115.9747	49.5778	0	Metamorphic	Canada
Pancun	Record 100	#defaultStyleMap	109.6833	23.9667	0	Hydrothermal	China
Mount Brussilof	Record 1054	#defaultStyleMap	-115.6778	50.7889	0	Metamorphic	Canada
Natashquan	Record 1060	#defaultStyleMap	-61.8333	50.5	0	Surficial	Canada
Ojibway	Record 1061	#defaultStyleMap	-83.0833	42.2667	0	Sedimentary	Canada
Orwell	Record 1062	#defaultStyleMap	-75.55	46.35	0	Metamorphic	Canada
Pollon Lake	Record 1067	#defaultStyleMap	-103.117	56.383	0	Metamorphic	Canada
Pugwash	Record 1068	#defaultStyleMap	-63.6833	45.8666	0	Sedimentary	Canada
SchubenacadieStewiacke	Record 1073	#defaultStyleMap	-63.35	45.1333	0	Sedimentary	Canada
St. Honore (Niobec)	Record 1077	#defaultStyleMap	-71.15	48.533	0	Igneous	Canada
Suzorite	Record 1082	#defaultStyleMap	-74.3333	47.9833	0	Igneous	Canada
Tanco (Bernic Lake)	Record 1083	#defaultStyleMap	-95.45	50.4333	0	Igneous	Canada
Texada Island	Record 1084	#defaultStyleMap	-124.3653	49.6069	0	Sedimentary	Canada
Thor Lake	Record 1086	#defaultStyleMap	-112.167	62.417	0	Igneous	Canada
Windemere	Record 1091	#defaultStyleMap	-115.8722	50.4806	0	Sedimentary	Canada
Aguas Blancas	Record 1095	#defaultStyleMap	-69.8333	-24.25	0	Sedimentary	Chile
Catedral	Record 1097	#defaultStyleMap	-70.1833	-34.1667	0	Sedimentary	Chile
Cerro Blanco	Record 1098	#defaultStyleMap	-71.0667	-28.7167	0	Igneous	Chile
Dos Gemelos	Record 1105	#defaultStyleMap	-68.7333	-25.3833	0	Hydrothermal	Chile
Gorbea	Record 1113	#defaultStyleMap	-68.6	-25.4333	0	Hydrothermal	Chile
La Coipa	Record 1118	#defaultStyleMap	-69.2583	-26.8125	0	Hydrothermal	Chile
Polan	Record 1129	#defaultStyleMap	-68.5667	-21.2333	0	Hydrothermal	Chile
Salar de Atacama	Record 1135	#defaultStyleMap	-68.4072	-23.5539	0	Sedimentary	Chile
Volcan Apagado	Record 1140	#defaultStyleMap	-67.8683	-22.6117	0	Hydrothermal	Chile
Yumbes (Taltal)	Record 1141	#defaultStyleMap	-70.4833	-25.4	0	Sedimentary	Chile
Chivor district	Record 1144	#defaultStyleMap	-73.3667	4.8667	0	Hydrothermal	Colombia
Coscuez district	Record 1146	#defaultStyleMap	-74.1667	5.65	0	Hydrothermal	Colombia
Muzo district	Record 1148	#defaultStyleMap	-74.1667	5.55	0	Hydrothermal	Colombia
Loma Comastro	Record 1151	#defaultStyleMap	-85.5	10.809	0	Sedimentary	Costa Rica
Laco	Record 1121	#defaultStyleMap	-67.4767	-23.8267	0	Hydrothermal	Chile
Las Cruces - Las Hormigas	Record 1163	#defaultStyleMap	-90.25	14.8833	0	Sedimentary	Guatemala
Bordj Redir	Record 2141	#defaultStyleMap	4.9061	35.9081	0	Sedimentary	Algeria
El Mochito	Record 1167	#defaultStyleMap	-88.0667	14.85	0	Hydrothermal	Honduras
Adair	Record 1170	#defaultStyleMap	-113.8	31.5	0	Sedimentary	Mexico
Aguachile	Record 1171	#defaultStyleMap	-102.339	29.297	0	Hydrothermal	Mexico
Alejandra	Record 1173	#defaultStyleMap	-103.1667	25.6667	0	Sedimentary	Mexico
Avino	Record 1174	#defaultStyleMap	-104.3	24.52	0	Hydrothermal	Mexico
Batopilas	Record 1176	#defaultStyleMap	-107.7667	27.0167	0	Hydrothermal	Mexico
Bermejillo North and South	Record 1177	#defaultStyleMap	-103.6333	23.8833	0	Sedimentary	Mexico
Bolanos	Record 1178	#defaultStyleMap	-103.769	21.82	0	Hydrothermal	Mexico
Colorada (El Creston deposit, La Colorado mine, Gran Central mine, La Verde mine)	Record 1183	#defaultStyleMap	-111.2833	29.3667	0	Hydrothermal	Mexico
Concepcion del Oro District	Record 1184	#defaultStyleMap	-101.429	24.608	0	Hydrothermal	Mexico
Cosala	Record 1185	#defaultStyleMap	-106.716	24.383	0	Hydrothermal	Mexico
Dolores	Record 1186	#defaultStyleMap	-107.1667	25.9667	0	Hydrothermal	Mexico
El Fraile	Record 1189	#defaultStyleMap	-100.71	23.68	0	Hydrothermal	Mexico
El Oro	Record 1190	#defaultStyleMap	-100.129	19.802	0	Hydrothermal	Mexico
Kropfmuehl	Record 1351	#defaultStyleMap	13.65	48.6166666666667	0	Metamorphic	Germany
El Pilon Mine (San Martin de Bolanos district)	Record 1191	#defaultStyleMap	-104.75	20.967	0	Hydrothermal	Mexico
El Refugio	Record 1192	#defaultStyleMap	-100.15	21.533	0	Hydrothermal	Mexico
EncantadaBuenavista	Record 1193	#defaultStyleMap	-102.5	28.5	0	Hydrothermal	Mexico
Fresnillo/Proano	Record 1195	#defaultStyleMap	-102.85	23.15	0	Hydrothermal	Mexico
Guanacevi	Record 1196	#defaultStyleMap	-105.967	25.583	0	Hydrothermal	Mexico
Guanajuato	Record 1197	#defaultStyleMap	-101.233	21.033	0	Hydrothermal	Mexico
Guerrero Negro	Record 1198	#defaultStyleMap	-114.25	27.917	0	Sedimentary	Mexico
La Blanca	Record 1199	#defaultStyleMap	-102.133	22.65	0	Metamorphic	Mexico
La Colorada (district)	Record 1202	#defaultStyleMap	-103.75	23.383	0	Hydrothermal	Mexico
La Encantada mine (Buenevista mining district)	Record 1203	#defaultStyleMap	-102.367	28.617	0	Hydrothermal	Mexico
La Ilusion-San Pedro	Record 1205	#defaultStyleMap	-102.5	26.1667	0	Sedimentary	Mexico
La Paz	Record 1206	#defaultStyleMap	-100.71	23.69	0	Hydrothermal	Mexico
Laguna del Rey	Record 1207	#defaultStyleMap	-103.433	27.033	0	Sedimentary	Mexico
Las Cuevas (Zaragoza-Rio Verde district)	Record 1208	#defaultStyleMap	-101.1	22.533	0	Hydrothermal	Mexico
Mazatan district	Record 1210	#defaultStyleMap	-110.1958	28.8292	0	Hydrothermal	Mexico
Molango	Record 1212	#defaultStyleMap	-98.7333	20.8333	0	Sedimentary	Mexico
Naica	Record 1214	#defaultStyleMap	-105.5	27.8667	0	Hydrothermal	Mexico
Ojuela-Mapimi	Record 1216	#defaultStyleMap	-103.75	25.81	0	Hydrothermal	Mexico
Pachuca	Record 1217	#defaultStyleMap	-98.75	20.1667	0	Hydrothermal	Mexico
Pachuca-Real de Monte	Record 1218	#defaultStyleMap	-98.717	20.117	0	Hydrothermal	Mexico
Parral	Record 1219	#defaultStyleMap	-105.69	26.97	0	Hydrothermal	Mexico
Penasquito	Record 1221	#defaultStyleMap	-101.82	24.79	0	Hydrothermal	Mexico
Pico Etero District	Record 1222	#defaultStyleMap	-102.3389	29.2972	0	Hydrothermal	Mexico
Pilares	Record 1223	#defaultStyleMap	-111.4167	29.35	0	Metamorphic	Mexico
Pinos	Record 1224	#defaultStyleMap	-96.34	15.99	0	Hydrothermal	Mexico
Real de Angeles	Record 1225	#defaultStyleMap	-103	23.5	0	Hydrothermal	Mexico
Real de Asientos	Record 1226	#defaultStyleMap	-103.13	22.22	0	Hydrothermal	Mexico
Real de Catorce	Record 1227	#defaultStyleMap	-100.8631	23.7006	0	Hydrothermal	Mexico
Sac Tun	Record 1228	#defaultStyleMap	-90.033	20.8	0	Sedimentary	Mexico
San Acacio	Record 1229	#defaultStyleMap	-102.55	22.83	0	Hydrothermal	Mexico
San Agustin	Record 1230	#defaultStyleMap	-102	25.533	0	Sedimentary	Mexico
San Francisco del Oro	Record 1231	#defaultStyleMap	-105.833	26.867	0	Hydrothermal	Mexico
San Juan de la Costa	Record 1232	#defaultStyleMap	-110.7022	24.3825	0	Sedimentary	Mexico
San Marcos Island	Record 1233	#defaultStyleMap	-112.1	27.217	0	Sedimentary	Mexico
San Martin	Record 1234	#defaultStyleMap	-103.873	21.782	0	Hydrothermal	Mexico
San Martin	Record 1235	#defaultStyleMap	-103.7372	23.6553	0	Hydrothermal	Mexico
Santa Barbara	Record 1237	#defaultStyleMap	-105.82	26.8	0	Hydrothermal	Mexico
Santa Eulalia	Record 1239	#defaultStyleMap	-105.883	28.617	0	Hydrothermal	Mexico
Santa Fe	Record 1240	#defaultStyleMap	-93.0333	17.3	0	Metamorphic	Mexico
Santa Rosa district	Record 1241	#defaultStyleMap	-101.5	27.7833	0	Hydrothermal	Mexico
Santa Rosalia	Record 1243	#defaultStyleMap	-112.2833	27.3167	0	Sedimentary	Mexico
Santo Domingo Mine	Record 1244	#defaultStyleMap	-111	24.2833	0	Sedimentary	Mexico
Sierra Mojada	Record 1245	#defaultStyleMap	-103.673	27.275	0	Hydrothermal	Mexico
Taxco	Record 1247	#defaultStyleMap	-99.583	18.617	0	Hydrothermal	Mexico
Tayoltita (San Dimas)	Record 1248	#defaultStyleMap	-105.9333	24.1	0	Hydrothermal	Mexico
Telixtlahuaca	Record 1249	#defaultStyleMap	-96.867	17.333	0	Metamorphic	Mexico
Finsch	Record 2720	#defaultStyleMap	23.45	-28.38333	0	Igneous	South Africa
Tocayos	Record 1250	#defaultStyleMap	-103.62	23.63	0	Hydrothermal	Mexico
Tonichi	Record 1251	#defaultStyleMap	-109.567	28.617	0	Metamorphic	Mexico
Velardena	Record 1252	#defaultStyleMap	-103.7333	25.0667	0	Hydrothermal	Mexico
Zacatecas	Record 1253	#defaultStyleMap	-102.583	22.75	0	Hydrothermal	Mexico
Cerro el Toro	Record 1262	#defaultStyleMap	-78	-7.825	0	Hydrothermal	Peru
Old Hickory (Stony Creek)	Record 832	#defaultStyleMap	-77.567	36.917	0	Surficial	United States
Pearsol Creek	Record 833	#defaultStyleMap	-116.083	44.517	0	Surficial	United States
San Gabriel Mountains - Soledad Canyon	Record 834	#defaultStyleMap	-118.375	34.434	0	Surficial	United States
Boulougne	Record 835	#defaultStyleMap	-81.984	30.734	0	Surficial	United States
Cumberland Island	Record 836	#defaultStyleMap	-81.45	30.9	0	Surficial	United States
Washington County	Record 842	#defaultStyleMap	-90.833	38.25	0	Surficial	United States
San Rafael	Record 1274	#defaultStyleMap	-70.3217	-14.2328	0	Hydrothermal	Peru
Sechura (Bayovar)	Record 1275	#defaultStyleMap	-80.75	-5.8	0	Sedimentary	Peru
Artigas	Record 1285	#defaultStyleMap	-57.07	-30.26	0	Hydrothermal	Uruguay
Bulqiza	Record 1289	#defaultStyleMap	20.2666666666667	41.5166666666667	0	Igneous	Albania
Amasijskoe	Record 1292	#defaultStyleMap	43.7663888888889	40.8680555555556	0	Hydrothermal	Armenia
Doppl-Muehldorf-Zettlitz	Record 1297	#defaultStyleMap	15.45	48.3833333333333	0	Metamorphic	Austria
Kaiserberg	Record 1299	#defaultStyleMap	15.0666666666667	47.35	0	Metamorphic	Austria
Mittersill	Record 1300	#defaultStyleMap	12.4666666666667	47.2	0	Sedimentary	Austria
Trieben	Record 1301	#defaultStyleMap	14.5	47.4833333333333	0	Metamorphic	Austria
Altenberg	Record 1349	#defaultStyleMap	13.8	50.7666666666667	0	Hydrothermal	Germany
Rome	Record 848	#defaultStyleMap	-117.7	42.867	0	Unclassified	United States
Ntuane	Record 2692	#defaultStyleMap	26.91667	-25.21667	0	Igneous	South Africa
Obrochishte	Record 1310	#defaultStyleMap	28.0666666666667	43.3833333333333	0	Sedimentary	Bulgaria
Varana District	Record 1311	#defaultStyleMap	27.9166666666667	43.3833333333333	0	Sedimentary	Bulgaria
Cesky-Krumlov	Record 1312	#defaultStyleMap	14.3166666666667	48.8	0	Metamorphic	Czech Republic
Kolledeye	Record 1313	#defaultStyleMap	14.45	49.2166666666667	0	Metamorphic	Czech Republic
Krasno	Record 1314	#defaultStyleMap	12.8	50.1	0	Hydrothermal	Czech Republic
Mestsky-Vrch	Record 1315	#defaultStyleMap	14.3	48.85	0	Metamorphic	Czech Republic
Velke Vrbno-Konstantin	Record 1316	#defaultStyleMap	17.3333333333333	50.1333333333333	0	Metamorphic	Czech Republic
Kemi	Record 1320	#defaultStyleMap	24.7166666666667	65.7833333333333	0	Igneous	Finland
Lapeenranta	Record 1324	#defaultStyleMap	28.25	61.0666666666667	0	Sedimentary	Finland
Otanmaki	Record 1328	#defaultStyleMap	28.1666666666667	64.25	0	Igneous	Finland
Fumade	Record 1339	#defaultStyleMap	2.48333333333333	43.65	0	Hydrothermal	France
Karibib District	Record 2584	#defaultStyleMap	16	-22.15	0	Igneous	Namibia
Chiatura	Record 1343	#defaultStyleMap	43.2472222222222	42.2336111111111	0	Sedimentary	Georgia
Rodinouli-Cholatunskoe	Record 1346	#defaultStyleMap	42.9536111111111	42.1191666666667	0	Sedimentary	Georgia
Yerikini	Record 1361	#defaultStyleMap	23.45	40.25	0	Hydrothermal	Greece
Urkut District	Record 1364	#defaultStyleMap	17.6666666666667	47.0833333333333	0	Sedimentary	Hungary
Northern Italy District	Record 1370	#defaultStyleMap	10.1	45.9166666666667	0	Hydrothermal	Italy
Piampaludo	Record 1372	#defaultStyleMap	8.86666666666667	44.4666666666667	0	Metamorphic	Italy
Pinerolo	Record 1373	#defaultStyleMap	7.31666666666667	44.8833333333333	0	Metamorphic	Italy
Agpat, Ilimaussaq intrusion	Record 1375	#defaultStyleMap	-45.75	60.9333333333333	0	Igneous	Kalaallit Nunaat (Greenland)
Fiskenaesset	Record 1378	#defaultStyleMap	-50.6666666666667	63.1	0	Igneous	Kalaallit Nunaat (Greenland)
Kringlerne, Ilimaussaq intrusion	Record 1380	#defaultStyleMap	-45.8605555555556	60.8680555555556	0	Igneous	Kalaallit Nunaat (Greenland)
Malmbjerg	Record 1382	#defaultStyleMap	-24.25	71.9166666666667	0	Igneous	Kalaallit Nunaat (Greenland)
Vammala	Record 1335	#defaultStyleMap	24.9	61.3333333333333	0	Igneous	Finland
Motzfeldt Centre, Igaliko nepheline syenite	Record 1383	#defaultStyleMap	-45	61.25	0	Igneous	Kalaallit Nunaat (Greenland)
Qaqqaarsuk	Record 1386	#defaultStyleMap	-51.7	65.3833333333333	0	Igneous	Kalaallit Nunaat (Greenland)
Sarfartoq	Record 1388	#defaultStyleMap	-51.25	66.5	0	Igneous	Kalaallit Nunaat (Greenland)
20 Let KazSSR	Record 1389	#defaultStyleMap	58.4333333333333	50.3166666666667	0	Igneous	Kazakhstan
Akchatau	Record 1395	#defaultStyleMap	74.0686111111111	47.9513888888889	0	Hydrothermal	Kazakhstan
Almaz-Zhemchuzhina, Geofizicheskoe	Record 1399	#defaultStyleMap	58.4705555555556	50.2383333333333	0	Igneous	Kazakhstan
Aqchatau	Record 1401	#defaultStyleMap	74.0333333333333	48	0	Igneous	Kazakhstan
Aurtash	Record 1405	#defaultStyleMap	51.8847222222222	43.73	0	Sedimentary	Kazakhstan
Balakauskandynskoe	Record 1407	#defaultStyleMap	67.2936111111111	44.4880555555556	0	Hydrothermal	Kazakhstan
Batystau	Record 1409	#defaultStyleMap	73.8238888888889	48.2880555555556	0	Hydrothermal	Kazakhstan
Belogorskoe	Record 1410	#defaultStyleMap	83.1	49.4666666666667	0	Igneous	Kazakhstan
Boguty	Record 1418	#defaultStyleMap	78.95	43.5333333333333	0	Igneous	Kazakhstan
Bulandy	Record 1422	#defaultStyleMap	84.25	48.9	0	Igneous	Kazakhstan
Donetskoe	Record 1423	#defaultStyleMap	69.65	53.5166666666667	0	Igneous	Kazakhstan
Donskoy	Record 1424	#defaultStyleMap	59.0833333333333	50.0833333333333	0	Igneous	Kazakhstan
Dorozhilovskoe	Record 1425	#defaultStyleMap	61.4	52.65	0	Igneous	Kazakhstan
Druzhba B	Record 1426	#defaultStyleMap	76.55	51.45	0	Surficial	Kazakhstan
Geophizicheskoe	Record 1428	#defaultStyleMap	58.5166666666667	50.2833333333333	0	Igneous	Kazakhstan
Karatas	Record 1432	#defaultStyleMap	73.7830555555555	46.6180555555556	0	Igneous	Kazakhstan
Katpar North	Record 1434	#defaultStyleMap	72.95	48.7333333333333	0	Igneous	Kazakhstan
Kempirsai	Record 1435	#defaultStyleMap	58.25	50.6	0	Igneous	Kazakhstan
Koktenkol	Record 1439	#defaultStyleMap	72.25	48.6166666666667	0	Igneous	Kazakhstan
Konyrat	Record 1440	#defaultStyleMap	75	46.9833333333333	0	Igneous	Kazakhstan
Kumkol'skoe	Record 1443	#defaultStyleMap	61.9016666666667	50.745	0	Surficial	Kazakhstan
Kundybai	Record 1444	#defaultStyleMap	60.8	51.8833333333333	0	Igneous	Kazakhstan
Kurumsak	Record 1447	#defaultStyleMap	67.6333333333333	44.3166666666667	0	Sedimentary	Kazakhstan
Losevskoe	Record 1450	#defaultStyleMap	69.0022222222222	52.7444444444444	0	Igneous	Kazakhstan
Sarysai	Record 1469	#defaultStyleMap	66.3166666666667	47.5833333333333	0	Sedimentary	Kazakhstan
Singirbajskaja	Record 1472	#defaultStyleMap	60.7555555555556	49.8888888888889	0	Surficial	Kazakhstan
Smirnovskoe	Record 1473	#defaultStyleMap	62.1172222222222	53.55	0	Igneous	Kazakhstan
Solnechnoe	Record 1475	#defaultStyleMap	71.2422222222222	47.2575	0	Hydrothermal	Kazakhstan
Syrymbet	Record 1476	#defaultStyleMap	68.0680555555555	53.3202777777778	0	Igneous	Kazakhstan
Verkhnee Espe	Record 1483	#defaultStyleMap	81.45	48.1833333333333	0	Igneous	Kazakhstan
Verkhnee Qairaqty	Record 1484	#defaultStyleMap	73.25	48.6833333333333	0	Igneous	Kazakhstan
Verkhnekajraktinskoe	Record 1485	#defaultStyleMap	73.2166666666667	48.6486111111111	0	Hydrothermal	Kazakhstan
Vostochnyj Kounrad, Severnyj Kounrad	Record 1486	#defaultStyleMap	75.2025	47.0019444444444	0	Hydrothermal	Kazakhstan
Chonkoy	Record 1497	#defaultStyleMap	72.4333333333333	40.3833333333333	0	Hydrothermal	Kyrgyzstan
Janguz-Bulak	Record 1499	#defaultStyleMap	71.3333333333333	39.95	0	Hydrothermal	Kyrgyzstan
Kadamdjai	Record 1501	#defaultStyleMap	71.7333333333333	40.1166666666667	0	Hydrothermal	Kyrgyzstan
Khaidarkan	Record 1502	#defaultStyleMap	71.3666666666667	39.95	0	Hydrothermal	Kyrgyzstan
Lyangar	Record 1506	#defaultStyleMap	65.95	40.4	0	Igneous	Kyrgyzstan
Qara-Archa	Record 1508	#defaultStyleMap	71.4	39.95	0	Hydrothermal	Kyrgyzstan
Terekskoe	Record 1510	#defaultStyleMap	70.9197222222222	41.4869444444444	0	Hydrothermal	Kyrgyzstan
Uch-Imchek	Record 1511	#defaultStyleMap	71.8	42.3333333333333	0	Hydrothermal	Kyrgyzstan
Uchkoshton	Record 1512	#defaultStyleMap	78.6855555555556	41.7961111111111	0	Igneous	Kyrgyzstan
Knaben	Record 1517	#defaultStyleMap	7.16666666666667	58.6666666666667	0	Hydrothermal	Norway
Kongsberg	Record 1518	#defaultStyleMap	9.61666666666667	59.6333333333333	0	Hydrothermal	Norway
Tellnes	Record 1521	#defaultStyleMap	6.41666666666667	58.3333333333333	0	Igneous	Norway
Guarda	Record 1527	#defaultStyleMap	-7.33333333333333	40.5	0	Hydrothermal	Portugal
Baia de Fier	Record 1531	#defaultStyleMap	23.75	45.2333333333333	0	Metamorphic	Romania
Chituc	Record 1533	#defaultStyleMap	29.6333333333333	45	0	Surficial	Romania
Glogova-Sisesti District	Record 1534	#defaultStyleMap	22.9666666666667	44.9166666666667	0	Igneous	Romania
Agylkinskoe	Record 1539	#defaultStyleMap	136.972777777778	64.3783333333333	0	Hydrothermal	Russia
Aktashskoye	Record 1543	#defaultStyleMap	87.2	50.2	0	Hydrothermal	Russia
Algama	Record 1547	#defaultStyleMap	135.483333333333	58.6666666666667	0	Hydrothermal	Russia
Ariadnoe	Record 1551	#defaultStyleMap	134.4625	45.2086111111111	0	Igneous	Russia
Arsenyevsky	Record 1552	#defaultStyleMap	134.787222222222	44.4238888888889	0	Hydrothermal	Russia
Balcan (Balkan)	Record 1556	#defaultStyleMap	59.6	53.45	0	Hydrothermal	Russia
Barun-Shiveinsky	Record 1559	#defaultStyleMap	115.166666666667	51.3666666666667	0	Hydrothermal	Russia
Belogorskoe	Record 1563	#defaultStyleMap	91.1927777777778	64.3741666666667	0	Igneous	Russia
Belukha (Bulucha)	Record 1565	#defaultStyleMap	116	50.5	0	Hydrothermal	Russia
Boguchanskoe	Record 1572	#defaultStyleMap	130.669166666667	48.9172222222222	0	Hydrothermal	Russia
Bom-Gorkhon (Bomgorkhon)	Record 1573	#defaultStyleMap	109.416666666667	51.1333333333333	0	Hydrothermal	Russia
Bugdainskoe	Record 1575	#defaultStyleMap	117.6775	51.1766666666667	0	Igneous	Russia
Bukuka	Record 1577	#defaultStyleMap	116.833333333333	51	0	Hydrothermal	Russia
Deputatskoe	Record 1586	#defaultStyleMap	139.848611111111	69.4358333333333	0	Hydrothermal	Russia
Dzhaninskoe	Record 1590	#defaultStyleMap	134.116666666667	55.5705555555556	0	Igneous	Russia
Dzhida	Record 1591	#defaultStyleMap	104.633333333333	52.9	0	Hydrothermal	Russia
Galimovskoe	Record 1599	#defaultStyleMap	155.935277777778	62.3725	0	Hydrothermal	Russia
Gornoye Ozero	Record 1603	#defaultStyleMap	137.066666666667	59.9166666666667	0	Igneous	Russia
Sahamamy	Record 2473	#defaultStyleMap	48.9167	-18.5833	0	Metamorphic	Madagascar
Gusevogorsk	Record 1608	#defaultStyleMap	59.6	58.7	0	Igneous	Russia
Iultin	Record 1615	#defaultStyleMap	-178.726666666667	67.8569444444444	0	Hydrothermal	Russia
Kalgutinskoye 1	Record 1621	#defaultStyleMap	88.0333333333333	49.2333333333333	0	Hydrothermal	Russia
Kavakta	Record 1631	#defaultStyleMap	125.366666666667	55.8833333333333	0	Igneous	Russia
Khibiny	Record 1637	#defaultStyleMap	33.5833333333333	67.8666666666667	0	Igneous	Russia
Kti-Teberda	Record 1651	#defaultStyleMap	41.4666666666667	43.45	0	Hydrothermal	Russia
Kukenei	Record 1653	#defaultStyleMap	174.090833333333	69.13	0	Hydrothermal	Russia
Kupol'noe	Record 1656	#defaultStyleMap	144.471111111111	63.5230555555556	0	Igneous	Russia
Laba	Record 1662	#defaultStyleMap	40.7333333333333	44.65	0	Sedimentary	Russia
Lednikovy-Sarmaka	Record 1666	#defaultStyleMap	134.683333333333	52.5666666666667	0	Hydrothermal	Russia
Lermontovsky	Record 1670	#defaultStyleMap	134.456666666667	46.9455555555556	0	Hydrothermal	Russia
Lunnoe 1	Record 1674	#defaultStyleMap	155.2	63.3833333333333	0	Hydrothermal	Russia
Maimakanskoe	Record 1676	#defaultStyleMap	134.495	55.6197222222222	0	Igneous	Russia
Prognoz	Record 1720	#defaultStyleMap	133.202222222222	65.7444444444444	0	Hydrothermal	Russia
Pyrkakai	Record 1721	#defaultStyleMap	171.950277777778	69.5575	0	Igneous	Russia
Hwehka	Record 78	#defaultStyleMap	96.2786	25.4842	0	Gemstone	Burma
Sherlovogorskoe	Record 1734	#defaultStyleMap	116.100555555556	50.59	0	Igneous	Russia
Smirnovskoe	Record 1739	#defaultStyleMap	135.272222222222	44.6908333333333	0	Hydrothermal	Russia
Sorskoe	Record 1742	#defaultStyleMap	90.1275	54.0130555555556	0	Igneous	Russia
Svetloe	Record 1753	#defaultStyleMap	116.035	58.4116666666667	0	Hydrothermal	Russia
Tamvatney	Record 1758	#defaultStyleMap	174.21	63.4788888888889	0	Hydrothermal	Russia
Tastygskoye	Record 1762	#defaultStyleMap	97.3	49.8833333333333	0	Igneous	Russia
Tayginsk (Tajginskoje)	Record 1763	#defaultStyleMap	60.65	55.6333333333333	0	Metamorphic	Russia
Tomtor	Record 1769	#defaultStyleMap	116.666666666667	71.0833333333333	0	Igneous	Russia
Tyrnyauz	Record 1773	#defaultStyleMap	45.7105555555556	45.6425	0	Hydrothermal	Russia
Xihuashan	Record 237	#defaultStyleMap	114.3167	25.3667	0	Hydrothermal	China
Maryland	Record 3082	#defaultStyleMap	30.5417	-17.6167	0	Igneous	Zimbabwe
Valkumei	Record 1782	#defaultStyleMap	170.207777777778	69.6505555555556	0	Hydrothermal	Russia
Vostok-2	Record 1795	#defaultStyleMap	135.854444444444	46.5655555555556	0	Hydrothermal	Russia
Vysokogorskoe	Record 1798	#defaultStyleMap	135	43	0	Hydrothermal	Russia
Zapadno-Paljanskoe	Record 1803	#defaultStyleMap	171.99	68.8975	0	Hydrothermal	Russia
Zhirekenskoe	Record 1806	#defaultStyleMap	117.319166666667	52.7888888888889	0	Igneous	Russia
Ochtiná	Record 1812	#defaultStyleMap	20.3333333333333	48.6833333333333	0	Hydrothermal	Slovakia
Ratkovská Suchá	Record 1813	#defaultStyleMap	20.0666666666667	48.5833333333333	0	Hydrothermal	Slovakia
Sirk	Record 1815	#defaultStyleMap	20.1	48.6166666666667	0	Hydrothermal	Slovakia
Idrija	Record 1816	#defaultStyleMap	14.25	46	0	Hydrothermal	Slovenia
Almanden	Record 1818	#defaultStyleMap	-4.85	38.7833333333333	0	Hydrothermal	Spain
Eugui	Record 1823	#defaultStyleMap	-1.5	42.9833333333333	0	Hydrothermal	Spain
Los Santos	Record 1825	#defaultStyleMap	-5.76666666666667	40.5333333333333	0	Hydrothermal	Spain
Montevive	Record 1826	#defaultStyleMap	-3.7	39.1666666666667	0	Sedimentary	Spain
Yxsjoberg	Record 1842	#defaultStyleMap	15	60.1	0	Hydrothermal	Sweden
Aqarkhar	Record 1844	#defaultStyleMap	73.7333333333333	37.9333333333333	0	Igneous	Tajikistan
Chorukh-Dairon	Record 1846	#defaultStyleMap	69.7	40.4	0	Igneous	Tajikistan
Dalnee	Record 1847	#defaultStyleMap	69.6666666666667	40.7833333333333	0	Igneous	Tajikistan
Dzhizhikrut	Record 1848	#defaultStyleMap	68.6005555555555	39.2041666666667	0	Hydrothermal	Tajikistan
Jezhikrut	Record 1850	#defaultStyleMap	68.65	39.15	0	Hydrothermal	Tajikistan
Arikskoe	Record 1854	#defaultStyleMap	65.7855555555555	37.9372222222222	0	Sedimentary	Turkmenistan
Central'no-Karakumskoe	Record 1855	#defaultStyleMap	58.9627777777778	40.1563888888889	0	Sedimentary	Turkmenistan
Karashor	Record 1856	#defaultStyleMap	56.5480555555556	41.0744444444444	0	Sedimentary	Turkmenistan
Bol'shoi Tokmak	Record 1862	#defaultStyleMap	35.6666666666667	47.5	0	Sedimentary	Ukraine
Malyshevskiy	Record 1868	#defaultStyleMap	34.3333333333333	48.5	0	Surficial	Ukraine
Nikopol	Record 1870	#defaultStyleMap	34.5	47.6666666666667	0	Surficial	Ukraine
Zaval'e (Zavaljevskoje)	Record 1873	#defaultStyleMap	30.0333333333333	48.2	0	Metamorphic	Ukraine
Zheltiye Vody	Record 1874	#defaultStyleMap	34.3333333333333	48.4166666666667	0	Hydrothermal	Ukraine
Geevor	Record 1876	#defaultStyleMap	-5.68333333333333	50.15	0	Hydrothermal	United Kingdom
Hemerdon	Record 1877	#defaultStyleMap	-4	50.5833333333333	0	Hydrothermal	United Kingdom
South Crofty	Record 1879	#defaultStyleMap	-5.11666666666667	50.2333333333333	0	Hydrothermal	United Kingdom
Aq-Tash	Record 1882	#defaultStyleMap	69.7666666666667	41.65	0	Igneous	Uzbekistan
Ingichke	Record 1885	#defaultStyleMap	65.9833333333333	39.7377777777778	0	Hydrothermal	Uzbekistan
Kojtash	Record 1888	#defaultStyleMap	67.3480555555555	40.2363888888889	0	Hydrothermal	Uzbekistan
Kurganshinan	Record 1890	#defaultStyleMap	69.7280555555556	40.8813888888889	0	Hydrothermal	Uzbekistan
Sherabad	Record 1893	#defaultStyleMap	67.2875	37.8869444444444	0	Sedimentary	Uzbekistan
Breitenau	Record 1896	#defaultStyleMap	15.15	47.3833333333333	0	Hydrothermal	Austria
Hochfilzen	Record 1897	#defaultStyleMap	12.6166666666667	47.4666666666667	0	Hydrothermal	Austria
Rabenwald-Krughof	Record 1898	#defaultStyleMap	15.7833333333333	47.2833333333333	0	Hydrothermal	Austria
Radenthein	Record 1899	#defaultStyleMap	13.65	46.8333333333333	0	Hydrothermal	Austria
Davydovskoe	Record 1900	#defaultStyleMap	29.2838888888889	52.5641666666667	0	Sedimentary	Belarus
Krichev	Record 1901	#defaultStyleMap	31.7166666666667	53.7	0	Sedimentary	Belarus
Mozyrskoe	Record 1902	#defaultStyleMap	29.1913888888889	51.9905555555556	0	Sedimentary	Belarus
Petrikovskoe	Record 1903	#defaultStyleMap	28.5	52.1166666666667	0	Sedimentary	Belarus
Starobinsk	Record 1904	#defaultStyleMap	27.4577777777778	52.9747222222222	0	Sedimentary	Belarus
Ljubija	Record 1905	#defaultStyleMap	16.3	44.55	0	Sedimentary	Bosnia-Herzegovina
Tuzla	Record 1906	#defaultStyleMap	18.75	44.5	0	Sedimentary	Bosnia-Herzegovina
Troodos Massif	Record 1907	#defaultStyleMap	32.8333333333333	34.9166666666667	0	Metamorphic	Cyprus
Borovany	Record 1908	#defaultStyleMap	14.4	49.35	0	Sedimentary	Czech Republic
Dolni Bory	Record 1909	#defaultStyleMap	16.0166666666667	49.4333333333333	0	Igneous	Czech Republic
Koberice	Record 1913	#defaultStyleMap	17.1166666666667	49.3666666666667	0	Sedimentary	Czech Republic
Siilinjrvi	Record 1915	#defaultStyleMap	27.6666666666667	63.0833333333333	0	Sedimentary	Finland
Albigeois District	Record 1916	#defaultStyleMap	2.15	43.9333333333333	0	Hydrothermal	France
Etang-sur-Arroux	Record 1917	#defaultStyleMap	4.18333333333333	46.8666666666667	0	Igneous	France
Font Sante	Record 1918	#defaultStyleMap	-6.76666666666667	43.4166666666667	0	Hydrothermal	France
Morvan District	Record 1920	#defaultStyleMap	4.3	49.95	0	Hydrothermal	France
Pouillon	Record 1922	#defaultStyleMap	1	43.6	0	Sedimentary	France
Riom-es-Montagnes (Bade)	Record 1923	#defaultStyleMap	2.66666666666667	45.2833333333333	0	Sedimentary	France
Saline de Hauterives	Record 1924	#defaultStyleMap	5.03333333333333	45.2666666666667	0	Sedimentary	France
Mcgowan	Record 3083	#defaultStyleMap	30.55	-17.75	0	Igneous	Zimbabwe
Santa Augusta	Record 1925	#defaultStyleMap	7.36666666666667	43.8	0	Sedimentary	France
Taverny	Record 1926	#defaultStyleMap	2.2	49.0333333333333	0	Sedimentary	France
Trimouns	Record 1927	#defaultStyleMap	1.81666666666667	42.8	0	Hydrothermal	France
Gumbri	Record 1928	#defaultStyleMap	42.65	42.3	0	Sedimentary	Georgia
Kisatibskoe	Record 1929	#defaultStyleMap	43.0333333333333	41.55	0	Sedimentary	Georgia
Bad Friedrichshall-Kochendorf	Record 1930	#defaultStyleMap	9.18333333333333	40.0833333333333	0	Surficial	Germany
Borth	Record 1931	#defaultStyleMap	6.55	51.6	0	Sedimentary	Germany
Braunschweig-Luneburg	Record 1932	#defaultStyleMap	10.4166666666667	52.0166666666667	0	Surficial	Germany
Clara	Record 1933	#defaultStyleMap	8.23333333333333	48.3833333333333	0	Hydrothermal	Germany
Epe/Westphalia	Record 1934	#defaultStyleMap	7.03333333333333	51.1833333333333	0	Surficial	Germany
Frechen	Record 1935	#defaultStyleMap	6.81666666666667	50.9166666666667	0	Surficial	Germany
Haltern	Record 1937	#defaultStyleMap	7.18333333333333	51.9	0	Surficial	Germany
Heilbronn (Heibronn, Hielbronn)	Record 1938	#defaultStyleMap	9.31666666666667	49.1333333333333	0	Surficial	Germany
Muschelkalk (Sachen-Anhalt)	Record 1941	#defaultStyleMap	11.5	51.9166666666667	0	Sedimentary	Germany
Niedersachswerfen	Record 1943	#defaultStyleMap	10.7666666666667	51.5666666666667	0	Sedimentary	Germany
Rottleberode	Record 1944	#defaultStyleMap	10.95	51.5166666666667	0	Hydrothermal	Germany
Weferlingen	Record 1946	#defaultStyleMap	11.0333333333333	52.3166666666667	0	Surficial	Germany
Yali	Record 1948	#defaultStyleMap	27.1166666666667	36.6833333333333	0	Igneous	Greece
Zidani	Record 1949	#defaultStyleMap	21.9	40.05	0	Hydrothermal	Greece
Eger	Record 1950	#defaultStyleMap	20.3833333333333	47.9	0	Sedimentary	Hungary
Palhaza (Mt. Gyongyko)	Record 1952	#defaultStyleMap	19.75	41.1833333333333	0	Igneous	Hungary
Lake Myvatn	Record 1953	#defaultStyleMap	-17.0333333333333	65.5666666666667	0	Sedimentary	Iceland
Acquacalda	Record 1954	#defaultStyleMap	14.95	38.25	0	Igneous	Italy
Belangero	Record 1955	#defaultStyleMap	7.41666666666667	45	0	Hydrothermal	Italy
Brusnengo	Record 1956	#defaultStyleMap	8.25	45	0	Igneous	Italy
Campiglia Marittima	Record 1957	#defaultStyleMap	10.6166666666667	43.05	0	Igneous	Italy
Mont 'Ega (Montega)	Record 1958	#defaultStyleMap	8.66666666666667	39.1833333333333	0	Hydrothermal	Italy
Morgongiori	Record 1959	#defaultStyleMap	8.76666666666667	39.75	0	Igneous	Italy
Porticello	Record 1960	#defaultStyleMap	13.5166666666667	38.1	0	Igneous	Italy
Volterra	Record 1961	#defaultStyleMap	10.75	43.3833333333333	0	Sedimentary	Italy
Ivittuut, Ivigtut	Record 1962	#defaultStyleMap	-48.1833333333333	61.2	0	Igneous	Kalaallit Nunaat (Greenland)
Aksaj, Chulaktau	Record 1963	#defaultStyleMap	70.4547222222222	43.1333333333333	0	Sedimentary	Kazakhstan
Aktyubinsk	Record 1964	#defaultStyleMap	57.3333333333333	50.2666666666667	0	Sedimentary	Kazakhstan
Boldulakskoe	Record 1965	#defaultStyleMap	53.4805555555556	44.6866666666667	0	Sedimentary	Kazakhstan
Bugetysajskoe, Ijul'skoe	Record 1966	#defaultStyleMap	59.1713888888889	49.1944444444444	0	Metamorphic	Kazakhstan
Chiganak	Record 1967	#defaultStyleMap	73.7094444444444	45.0344444444444	0	Sedimentary	Kazakhstan
Chilisai	Record 1968	#defaultStyleMap	57.3333333333333	49.4166666666667	0	Sedimentary	Kazakhstan
Chulaktau-I	Record 1969	#defaultStyleMap	70.4833333333333	43.15	0	Sedimentary	Kazakhstan
Druzhba A	Record 1970	#defaultStyleMap	76.6688888888889	51.54	0	Surficial	Kazakhstan
Dzhetygarinskoe 1	Record 1971	#defaultStyleMap	61.1355555555556	52.1333333333333	0	Metamorphic	Kazakhstan
Dzhetygarinskoe 2	Record 1972	#defaultStyleMap	61.2433333333333	52.2280555555556	0	Igneous	Kazakhstan
Eshkeul'messkoe	Record 1973	#defaultStyleMap	67.0841666666667	48.8461111111111	0	Metamorphic	Kazakhstan
Inderskaja	Record 1974	#defaultStyleMap	51.9497222222222	48.6708333333333	0	Sedimentary	Kazakhstan
Inderskoe	Record 1975	#defaultStyleMap	52.1905555555556	48.7397222222222	0	Sedimentary	Kazakhstan
Janytas	Record 1976	#defaultStyleMap	69.6	43.55	0	Sedimentary	Kazakhstan
Kajdakskoe	Record 1977	#defaultStyleMap	53.3858333333333	44.4311111111111	0	Sedimentary	Kazakhstan
Kamyskol'skoe, Karakamysskoe	Record 1980	#defaultStyleMap	53.6675	49.3161111111111	0	Sedimentary	Kazakhstan
Karakudukskoe	Record 1981	#defaultStyleMap	59.7475	50.4694444444444	0	Igneous	Kazakhstan
Karanynsaj-Temborgen	Record 1982	#defaultStyleMap	58.3755555555556	47.5577777777778	0	Sedimentary	Kazakhstan
Karatau Basin	Record 1983	#defaultStyleMap	70	44.5	0	Sedimentary	Kazakhstan
Kenterlauskoe	Record 1984	#defaultStyleMap	75.9480555555556	46.9527777777778	0	Igneous	Kazakhstan
Koksu	Record 1985	#defaultStyleMap	69.5802777777778	43.5858333333333	0	Sedimentary	Kazakhstan
Kudajberginskoe	Record 1987	#defaultStyleMap	48.5161111111111	47.6433333333333	0	Sedimentary	Kazakhstan
Kulet	Record 1988	#defaultStyleMap	69.6180555555555	53.0002777777778	0	Metamorphic	Kazakhstan
Melovoe	Record 1989	#defaultStyleMap	51.4883333333333	43.6855555555556	0	Sedimentary	Kazakhstan
Nenazvannoe	Record 1990	#defaultStyleMap	51.2244444444444	48.6816666666667	0	Sedimentary	Kazakhstan
Novoaleksandrovskoe	Record 1991	#defaultStyleMap	53.8083333333333	44.9894444444444	0	Sedimentary	Kazakhstan
Pokrovskoe	Record 1992	#defaultStyleMap	56.7619444444444	49.2855555555556	0	Sedimentary	Kazakhstan
Shalkarskoe	Record 1993	#defaultStyleMap	51.7586111111111	50.4944444444444	0	Sedimentary	Kazakhstan
Shalkarskoe	Record 1994	#defaultStyleMap	51.9258333333333	50.3897222222222	0	Sedimentary	Kazakhstan
Taskainar South	Record 1995	#defaultStyleMap	75.0833333333333	43.1333333333333	0	Igneous	Kazakhstan
Zhalair	Record 1996	#defaultStyleMap	72.8358333333333	49.5438888888889	0	Sedimentary	Kazakhstan
Zhalauly	Record 1997	#defaultStyleMap	74.2413888888889	52.8861111111111	0	Sedimentary	Kazakhstan
Zhanatas (Dzhanatas)	Record 1998	#defaultStyleMap	69.6	43.55	0	Sedimentary	Kazakhstan
Gradesnica	Record 1999	#defaultStyleMap	21.7666666666667	41.0833333333333	0	Igneous	Macedonia
Hengelo	Record 2000	#defaultStyleMap	6.8	52.2666666666667	0	Sedimentary	Netherlands
Weerselo	Record 2001	#defaultStyleMap	6.5	52.8333333333333	0	Sedimentary	Netherlands
Winschoten	Record 2002	#defaultStyleMap	7.03333333333333	53.15	0	Surficial	Netherlands
Aheim	Record 2003	#defaultStyleMap	5.53333333333333	62.0333333333333	0	Metamorphic	Norway
Granasen	Record 2004	#defaultStyleMap	5.53333333333333	62.2833333333333	0	Sedimentary	Norway
Stranda	Record 2005	#defaultStyleMap	6.9	62.3	0	Metamorphic	Norway
Jeziorko	Record 2006	#defaultStyleMap	21.8166666666667	50.5666666666667	0	Hydrothermal	Poland
Kletno III	Record 2007	#defaultStyleMap	16.8833333333333	53.3	0	Sedimentary	Poland
Klodawa	Record 2008	#defaultStyleMap	18.9166666666667	52.25	0	Sedimentary	Poland
Salamonde	Record 2009	#defaultStyleMap	-8.15	41.6333333333333	0	Igneous	Portugal
Bazhenovo	Record 2011	#defaultStyleMap	61.5	57.0333333333333	0	Metamorphic	Russia
Dalnegorsk	Record 2012	#defaultStyleMap	135.581666666667	44.4780555555556	0	Hydrothermal	Russia
Elton (Lake)	Record 2013	#defaultStyleMap	46.5833333333333	49.2666666666667	0	Sedimentary	Russia
Gremyakha-Vyrmes	Record 2014	#defaultStyleMap	32.4666666666667	68.6333333333333	0	Igneous	Russia
Kuchuk, Lake	Record 2016	#defaultStyleMap	79.7666666666667	52.7	0	Sedimentary	Russia
Lazinskoe	Record 2017	#defaultStyleMap	39.4	53.8666666666667	0	Sedimentary	Russia
Lupikko	Record 2018	#defaultStyleMap	31.55	61.55	0	Igneous	Russia
Nepskaja Group (Gazhenka, Datkon)	Record 2020	#defaultStyleMap	107.914444444444	59.2111111111111	0	Sedimentary	Russia
Novomoskovskoe	Record 2021	#defaultStyleMap	38.2166666666667	54.0833333333333	0	Sedimentary	Russia
Savinskoe	Record 2023	#defaultStyleMap	102.133333333333	52.5833333333333	0	Hydrothermal	Russia
Seligdarskoe	Record 2024	#defaultStyleMap	125.3	58.4	0	Igneous	Russia
Seregovskoe	Record 2025	#defaultStyleMap	50.6069444444444	62.3416666666667	0	Sedimentary	Russia
Shabrovskoe	Record 2026	#defaultStyleMap	60.7772222222222	56.5094444444444	0	Igneous	Russia
Shedokskoe	Record 2027	#defaultStyleMap	40.85	44.2166666666667	0	Sedimentary	Russia
Telek (Telekskoye, Bol'Shoy Telek)	Record 2029	#defaultStyleMap	92.05	54.2833333333333	0	Sedimentary	Russia
Tyretskoe (Usol'sko-Bulajskoe)	Record 2030	#defaultStyleMap	102.379722222222	53.6369444444444	0	Sedimentary	Russia
Verkhnekamsk	Record 2033	#defaultStyleMap	56.7544444444444	59.6122222222222	0	Sedimentary	Russia
Viatka Kama (Rudnichny)	Record 2035	#defaultStyleMap	52.4666666666667	59.6166666666667	0	Sedimentary	Russia
Voznesenka-2	Record 2036	#defaultStyleMap	132.134722222222	44.1836111111111	0	Igneous	Russia
Ddbrava-Miková	Record 2038	#defaultStyleMap	20.2333333333333	48.65	0	Hydrothermal	Slovakia
Kosice	Record 2039	#defaultStyleMap	21.25	48.7166666666667	0	Sedimentary	Slovakia
Lehotka pod Brehy	Record 2040	#defaultStyleMap	18.8	48.55	0	Igneous	Slovakia
Lubenik	Record 2041	#defaultStyleMap	20.2	48.6666666666667	0	Hydrothermal	Slovakia
Male Krstenany	Record 2042	#defaultStyleMap	18.4333333333333	48.6333333333333	0	Sedimentary	Slovakia?
Mociar	Record 2043	#defaultStyleMap	19.25	48.35	0	Sedimentary	Slovakia
Aldea Moret	Record 2044	#defaultStyleMap	-6.41666666666667	39.4166666666667	0	Igneous	Spain
Cerezo de Rio Tiron	Record 2045	#defaultStyleMap	-3.13333333333333	42.4833333333333	0	Sedimentary	Spain
El Castellar	Record 2046	#defaultStyleMap	-4.01666666666667	39.8666666666667	0	Sedimentary	Spain
Huelva	Record 2047	#defaultStyleMap	-6.95	37.2666666666667	0	Sedimentary	Spain
Pinoso	Record 2048	#defaultStyleMap	-1.03333333333333	38.4	0	Sedimentary	Spain
Torrelavega	Record 2050	#defaultStyleMap	-4.05	43.35	0	Sedimentary	Spain
Vicalvaro-Vallecas	Record 2051	#defaultStyleMap	-3.6	40.4	0	Sedimentary	Spain
Backegruvan	Record 2052	#defaultStyleMap	15.5666666666667	58.8333333333333	0	Igneous	Sweden
Gotland	Record 2053	#defaultStyleMap	18.8	57.8333333333333	0	Sedimentary	Sweden
Khodzhamunyn, Khodzhasartys	Record 2054	#defaultStyleMap	69.56	37.7325	0	Sedimentary	Tajikistan
Nurek	Record 2055	#defaultStyleMap	69.3197222222222	38.3902777777778	0	Sedimentary	Tajikistan
Tanapchi	Record 2056	#defaultStyleMap	69.5033333333333	37.9155555555556	0	Sedimentary	Tajikistan
Tutbulak	Record 2057	#defaultStyleMap	69.0525	38.2672222222222	0	Sedimentary	Tajikistan
Chashranta	Record 2058	#defaultStyleMap	66.1966666666667	37.5855555555556	0	Sedimentary	Turkmenistan
Divichi-Burunskoe	Record 2059	#defaultStyleMap	53.4333333333333	39.5372222222222	0	Sedimentary	Turkmenistan
Karashor	Record 2061	#defaultStyleMap	56.8775	40.5191666666667	0	Sedimentary	Turkmenistan
Sultan-Sandzharskoe	Record 2062	#defaultStyleMap	61.5652777777778	41.1016666666667	0	Sedimentary	Turkmenistan
Zaliv Kara-Bogaz-Gol	Record 2063	#defaultStyleMap	53.3725	42.0838888888889	0	Sedimentary	Turkmenistan
Artemovskoe	Record 2064	#defaultStyleMap	38.6333333333333	47.7	0	Sedimentary	Ukraine
Chernigovskii (Novopoltavskii)	Record 2065	#defaultStyleMap	36.25	47.2333333333333	0	Igneous	Ukraine
Iron Sides	Record 3077	#defaultStyleMap	30.0075	-19.6731	0	Igneous	Zimbabwe
Komsomolskoe	Record 2066	#defaultStyleMap	38.0833333333333	47.6666666666667	0	Sedimentary	Ukraine
Sivash	Record 2070	#defaultStyleMap	33.8333333333333	45.95	0	Sedimentary	Ukraine
Slavyanskoe	Record 2071	#defaultStyleMap	33.8333333333333	48.9166666666667	0	Sedimentary	Ukraine
Vilnohirsk (Mayshev, Dnieproperovsk)	Record 2073	#defaultStyleMap	34.0208333333333	48.4833333333333	0	Surficial	Ukraine
Dene Quarry	Record 2077	#defaultStyleMap	-1.55	53.1	0	Sedimentary	United Kingdom
Norwich	Record 2079	#defaultStyleMap	1.3	52.6333333333333	0	Sedimentary	United Kingdom
Peninine	Record 2080	#defaultStyleMap	-1.53333333333333	53.1333333333333	0	Igneous	United Kingdom
Dzheroj-Syrdara (Sardara)	Record 2083	#defaultStyleMap	64.5119444444444	41.3613888888889	0	Sedimentary	Uzbekistan
Dzheroj-Tashkura	Record 2084	#defaultStyleMap	64.1772222222222	41.0511111111111	0	Sedimentary	Uzbekistan
Affensou	Record 2085	#defaultStyleMap	4.2333	36.6667	0	Hydrothermal	Algeria
Ain Mimoun	Record 2086	#defaultStyleMap	7.1167	35.85	0	Hydrothermal	Algeria
Bou Caid	Record 2087	#defaultStyleMap	1.6667	35.6	0	Hydrothermal	Algeria
Gouraya	Record 2088	#defaultStyleMap	1.91667	36.56667	0	Hydrothermal	Algeria
Keddara	Record 2089	#defaultStyleMap	3.475	36.6167	0	Hydrothermal	Algeria
Mekla	Record 2090	#defaultStyleMap	4.35	36.65	0	Hydrothermal	Algeria
Sidi Kamber	Record 2091	#defaultStyleMap	6.5833	36.7167	0	Hydrothermal	Algeria
Medea	Record 2102	#defaultStyleMap	2.75	36.25	0	Sedimentary	Algeria
Sebket Oran (Sebkra d-Oran)	Record 2103	#defaultStyleMap	-0.8333	35.5833	0	Sedimentary	Algeria
Batna	Record 2129	#defaultStyleMap	6.7667	36.9333	0	Sedimentary	Algeria
Blida	Record 2130	#defaultStyleMap	2.8	36.4667	0	Sedimentary	Algeria
Bouira	Record 2131	#defaultStyleMap	3.9167	36.3667	0	Sedimentary	Algeria
Constantine	Record 2132	#defaultStyleMap	6.65	36.8333	0	Sedimentary	Algeria
El Asnam	Record 2134	#defaultStyleMap	1.9833	36.5	0	Sedimentary	Algeria
Oran	Record 2135	#defaultStyleMap	-0.6	35.6667	0	Sedimentary	Algeria
Bendjerah	Record 2136	#defaultStyleMap	7.6667	36.3333	0	Sedimentary	Algeria
Bou Hanifia	Record 2137	#defaultStyleMap	0.1667	35.2167	0	Sedimentary	Algeria
Filfila	Record 2138	#defaultStyleMap	7.1167	36.8833	0	Sedimentary	Algeria
Djebel Kouif (Le Kouif)	Record 2142	#defaultStyleMap	8.31667	35.48333	0	Sedimentary	Algeria
Djebel Onk	Record 2143	#defaultStyleMap	7.88333	34.71667	0	Sedimentary	Algeria
M'zaita	Record 2144	#defaultStyleMap	4.95	35.93333	0	Sedimentary	Algeria
Arzew	Record 2145	#defaultStyleMap	-0.3167	35.7	0	Sedimentary	Algeria
El Outaya	Record 2146	#defaultStyleMap	5.6	35.05	0	Sedimentary	Algeria
Gerboun Lamri	Record 2147	#defaultStyleMap	7.5	36.7833	0	Sedimentary	Algeria
Great Sebkha	Record 2148	#defaultStyleMap	-0.75	35.5	0	Sedimentary	Algeria
Sidi Bouziane	Record 2149	#defaultStyleMap	6.8333	35.7833	0	Sedimentary	Algeria
Beni Mansour	Record 2150	#defaultStyleMap	4.7667	36.3667	0	Sedimentary	Algeria
Karezas	Record 2151	#defaultStyleMap	7.65	36.8	0	Igneous	Algeria
Lueca	Record 2176	#defaultStyleMap	14.91667	-6.83333	0	Unclassified	Angola
Kgwakgwe	Record 2187	#defaultStyleMap	25.25	-24.96667	0	Sedimentary	Botswana
Lobatse	Record 2188	#defaultStyleMap	25.55	-25.21667	0	Sedimentary	Botswana
Ramotswa	Record 2189	#defaultStyleMap	25.66667	-24.86667	0	Sedimentary	Botswana
Ranaka Quartz Vein	Record 2193	#defaultStyleMap	25.41667	-24.925	0	Hydrothermal	Botswana
Sua Pan	Record 2194	#defaultStyleMap	26	-20.66667	0	Sedimentary	Botswana
Tambao	Record 2198	#defaultStyleMap	0.06667	14.78333	0	Sedimentary	Burkina Faso
Kodjari	Record 2199	#defaultStyleMap	1.9258	11.85	0	Sedimentary	Burkina Faso
Kouilou (Makola, Youbi)	Record 2210	#defaultStyleMap	12.1333	-4.5667	0	Sedimentary	Congo (Brazzaville)
Lueshe	Record 2211	#defaultStyleMap	29.1167	-0.9833	0	Igneous	Congo (Kinshasa)
Bingo	Record 2212	#defaultStyleMap	29.3167	0.5333	0	Igneous	Congo (Kinshasa)
Kitotolo	Record 2234	#defaultStyleMap	27.3833	-7.325	0	Igneous	Congo (Kinshasa)
Manono	Record 2235	#defaultStyleMap	27.45	-7.2792	0	Igneous	Congo (Kinshasa)
Kisenge (Kamata, Kapolo)	Record 2236	#defaultStyleMap	23.18333	-10.68333	0	Surficial	Congo (Kinshasa)
Miluba	Record 2237	#defaultStyleMap	27.3083	-2.95	0	Unclassified	Congo (Kinshasa)
Minerga	Record 2238	#defaultStyleMap	27.75	-2.2167	0	Unclassified	Congo (Kinshasa)
Punia-Kasese	Record 2239	#defaultStyleMap	27.1167	-1.6333	0	Surficial	Congo (Kinshasa)
Bukena	Record 2240	#defaultStyleMap	27.1833	-7.7167	0	Surficial	Congo (Kinshasa)
Kania	Record 2241	#defaultStyleMap	26.9583	-7.4667	0	Surficial	Congo (Kinshasa)
Kivu (Goma Kivu)	Record 2242	#defaultStyleMap	27.5	-26	0	Surficial	Congo (Kinshasa)
Mitwaba (Kiswa)	Record 2243	#defaultStyleMap	27.4167	-8.375	0	Igneous	Congo (Kinshasa)
Bishasha (Mumba and Kasangura deposits)	Record 2244	#defaultStyleMap	29.2333	-1.6667	0	Igneous	Congo (Kinshasa)
Kalima-Messaraba	Record 2245	#defaultStyleMap	26.6167	-2.5667	0	Igneous	Congo (Kinshasa)
Shinkolobwe (Shinkolobowe, Signal, Kasolo)	Record 2246	#defaultStyleMap	26.91667	-11	0	Hydrothermal	Congo (Kinshasa)
Mokta (Dikodoua (Grand Lahou))	Record 2253	#defaultStyleMap	-5	5.13333	0	Sedimentary	Côte DIvoire
Apliki	Record 2255	#defaultStyleMap	32.85	35.0667	0	Hydrothermal	Cyprus
Kalavasos	Record 2256	#defaultStyleMap	33.25	34.7833	0	Hydrothermal	Cyprus
Mathiati	Record 2257	#defaultStyleMap	33.35	34.9667	0	Hydrothermal	Cyprus
Mavrovouni	Record 2258	#defaultStyleMap	32.8333	35.0167	0	Hydrothermal	Cyprus
Skouriotissa	Record 2259	#defaultStyleMap	32.8833	35.0833	0	Hydrothermal	Cyprus
Hafafit	Record 2262	#defaultStyleMap	34.5003	24.8336	0	Metamorphic	Egypt
Wadi Sifein	Record 2263	#defaultStyleMap	34.7167	25.1	0	Igneous	Egypt
Abu Dabbab	Record 2270	#defaultStyleMap	34.5417	25.3408	0	Igneous	Egypt
Nuweibi	Record 2271	#defaultStyleMap	34.5167	25.1917	0	Igneous	Egypt
Umm Kabu	Record 2277	#defaultStyleMap	34.89444	24.59167	0	Igneous	Egypt
El Ballah	Record 2292	#defaultStyleMap	32.21667	30.73333	0	Sedimentary	Egypt
El Hammam	Record 2293	#defaultStyleMap	29.41667	30.83333	0	Sedimentary	Egypt
El Omayid	Record 2294	#defaultStyleMap	29.16667	30.78333	0	Sedimentary	Egypt
Gerza	Record 2295	#defaultStyleMap	31.06	28.81	0	Sedimentary	Egypt
Gharbanyat	Record 2296	#defaultStyleMap	29.5	30.83333	0	Sedimentary	Egypt
Ras Malaab	Record 2297	#defaultStyleMap	32.95	29.16667	0	Sedimentary	Egypt
Wadi El Rayan	Record 2298	#defaultStyleMap	32.75	29.83333	0	Sedimentary	Egypt
Manzala, Manzallah	Record 2299	#defaultStyleMap	32.0003	31.0003	0	Sedimentary	Egypt
Beni Hassan	Record 2311	#defaultStyleMap	30.95	27.95	0	Sedimentary	Egypt
Wadi Alaki	Record 2312	#defaultStyleMap	33.2	22.15	0	Sedimentary	Egypt
Sagia	Record 2313	#defaultStyleMap	33.7167	26.3336	0	Hydrothermal	Egypt
Wadi Mialik (My'alik, Meialeik)	Record 2314	#defaultStyleMap	35.3	24.16667	0	Hydrothermal	Egypt
Um Bogma	Record 2315	#defaultStyleMap	33.36667	28.98333	0	Sedimentary	Egypt
El Hamrawein	Record 2317	#defaultStyleMap	34.1	26.2	0	Sedimentary	Egypt
El Mahamid	Record 2318	#defaultStyleMap	32	25	0	Sedimentary	Egypt
Qena	Record 2319	#defaultStyleMap	32.8667	26.1667	0	Sedimentary	Egypt
Quseir	Record 2320	#defaultStyleMap	34.3333	26.1667	0	Sedimentary	Egypt
Red Sea Phosphate District	Record 2321	#defaultStyleMap	34.16667	26.16667	0	Sedimentary	Egypt
Rifale	Record 2322	#defaultStyleMap	31.3667	29.9167	0	Sedimentary	Egypt
Sabayia East	Record 2323	#defaultStyleMap	32.6833	25.1667	0	Sedimentary	Egypt
Safaga	Record 2324	#defaultStyleMap	33.9	26.53333	0	Sedimentary	Egypt
Sebaiya	Record 2325	#defaultStyleMap	32.6667	25.1667	0	Sedimentary	Egypt
Abu Tartur	Record 2326	#defaultStyleMap	30.0333	25.4333	0	Sedimentary	Egypt
Idku	Record 2327	#defaultStyleMap	30.25	31.25	0	Sedimentary	Egypt
Wadi Natrun	Record 2328	#defaultStyleMap	30.3	30.35	0	Sedimentary	Egypt
Wadi el Natron	Record 2329	#defaultStyleMap	30.3667	30.4167	0	Sedimentary	Egypt
Abu Ghalaga	Record 2330	#defaultStyleMap	35.06667	24.38333	0	Igneous	Egypt
Damietta	Record 2331	#defaultStyleMap	30.8	30.2167	0	Surficial	Egypt
Nile Delta-Rosetta	Record 2332	#defaultStyleMap	31	31	0	Surficial	Egypt
Rashid	Record 2333	#defaultStyleMap	30.3833	31.4167	0	Surficial	Egypt
Lake Abiyata	Record 2335	#defaultStyleMap	38.5	7.58333	0	Sedimentary	Ethiopia
Lake Shala	Record 2336	#defaultStyleMap	38.5	7.41667	0	Sedimentary	Ethiopia
Kenticha	Record 2349	#defaultStyleMap	40	5.5	0	Igneous	Ethiopia
Mabounie	Record 2350	#defaultStyleMap	10.6667	-0.85	0	Igneous	Gabon
Moanda	Record 2352	#defaultStyleMap	13.28333	-1.56667	0	Surficial	Gabon
Mounana (Oklo, Boyindzi)	Record 2353	#defaultStyleMap	13.5	-2	0	Hydrothermal	Gabon
Kalimbi Hill - Three Hills Area	Record 2369	#defaultStyleMap	-2.5431	8.7986	0	Surficial	Ghana
Nsuta	Record 2370	#defaultStyleMap	-1.95	5.23333	0	Sedimentary	Ghana
Odumase	Record 2371	#defaultStyleMap	-1.2167	6.6208	0	Sedimentary	Ghana
Darreh	Record 2388	#defaultStyleMap	51.30833	33.88333	0	Hydrothermal	Iran
Shahriar	Record 2390	#defaultStyleMap	57.25	27.26667	0	Igneous	Iran
Afzalabad	Record 2401	#defaultStyleMap	61.41667	31.01667	0	Sedimentary	Iran
Nakhjir-Dashte Kavir (Molkabad)	Record 2403	#defaultStyleMap	52.58333	34.53333	0	Sedimentary	Iran
Talhah	Record 2404	#defaultStyleMap	52.65833	34.5	0	Sedimentary	Iran
Akashat	Record 2406	#defaultStyleMap	40.11667	33.8	0	Sedimentary	Iraq
Sawab	Record 2407	#defaultStyleMap	39.5	33.66	0	Sedimentary	Iraq
Badoosh	Record 2408	#defaultStyleMap	43.3333	36.5	0	Sedimentary	Iraq
Mishraq Ash Shurah	Record 2409	#defaultStyleMap	43.3333	36	0	Sedimentary	Iraq
Beersheva	Record 2411	#defaultStyleMap	35.05	31.21667	0	Sedimentary	Israel
Oron	Record 2412	#defaultStyleMap	35.98333	30.86667	0	Sedimentary	Israel
Zefa-Ef'e (Arad)	Record 2413	#defaultStyleMap	35.18333	31.11667	0	Sedimentary	Israel
Zin (Nahal Zinam, Nahil Zin, Nahal Zin)	Record 2414	#defaultStyleMap	35.3167	30.95	0	Sedimentary	Israel
Marovinsky	Record 2471	#defaultStyleMap	48.95	-19.2333	0	Metamorphic	Madagascar
El Abyad (Wadi El Abayad, Al Abayad, El Abaid, Al Abaid)	Record 2417	#defaultStyleMap	36	30.9	0	Sedimentary	Jordan
Esh Shidiya (Es Shidiya, Esh Shidiya, Al Shidiyah, Shediyah)	Record 2418	#defaultStyleMap	36.2	29.8	0	Sedimentary	Jordan
Ruseifa	Record 2419	#defaultStyleMap	36.03333	32	0	Sedimentary	Jordan
Telot West Pokot	Record 2422	#defaultStyleMap	35.3833	1.65	0	Igneous	Kenya
Mrima Hill	Record 2423	#defaultStyleMap	39.26667	-4.5	0	Igneous	Kenya
Kenya Fluorspar	Record 2424	#defaultStyleMap	35.5833	1.1667	0	Hydrothermal	Kenya
Kerio Valley	Record 2425	#defaultStyleMap	35.61667	0.35	0	Hydrothermal	Kenya
Kinyiki	Record 2426	#defaultStyleMap	38.1667	-2.6667	0	Igneous	Kenya
Chawia	Record 2428	#defaultStyleMap	38.38333	-3.46667	0	Metamorphic	Kenya
Oldoinyo-Nyiro	Record 2429	#defaultStyleMap	37	0.75	0	Metamorphic	Kenya
Gilgia	Record 2432	#defaultStyleMap	36.33333	-0.33333	0	Unclassified	Kenya
Magadi	Record 2434	#defaultStyleMap	36.25	-1.8667	0	Sedimentary	Kenya
Lake Magadi	Record 2435	#defaultStyleMap	36.28333	-1.86667	0	Sedimentary	Kenya
Kwale	Record 2436	#defaultStyleMap	39.42	-4.42	0	Surficial	Kenya
Mambrui	Record 2437	#defaultStyleMap	40.15	-3.11667	0	Surficial	Kenya
Sokoke	Record 2438	#defaultStyleMap	39.8667	-3.3167	0	Surficial	Kenya
Yekepa	Record 2447	#defaultStyleMap	-8.4669	7.5839	0	Unclassified	Liberia
Gargaresh	Record 2449	#defaultStyleMap	12.9667	32.8667	0	Metamorphic	Libya
Bi'R Al Ghanam-Yafran	Record 2450	#defaultStyleMap	12.5667	32.2667	0	Sedimentary	Libya
Derna	Record 2452	#defaultStyleMap	22.6667	32.6667	0	Sedimentary	Libya
Homs	Record 2453	#defaultStyleMap	13.3333	32.75	0	Sedimentary	Libya
Bengasi	Record 2454	#defaultStyleMap	20.3333	32.0833	0	Sedimentary	Libya
Ghat	Record 2456	#defaultStyleMap	10.1833	24.9	0	Sedimentary	Libya
Mellaha	Record 2457	#defaultStyleMap	13.3333	32.9	0	Sedimentary	Libya
El Asruj (El Aswad)	Record 2458	#defaultStyleMap	17.25	27.4167	0	Sedimentary	Libya
Sebcha Kebirah	Record 2459	#defaultStyleMap	18.8333	30.2333	0	Sedimentary	Libya
Andriamena	Record 2460	#defaultStyleMap	47.5	-17.41667	0	Igneous	Madagascar
Befandriana	Record 2461	#defaultStyleMap	48.1667	-16.5	0	Igneous	Madagascar
Bemanevika	Record 2462	#defaultStyleMap	47.5333	-17.5667	0	Igneous	Madagascar
Majunga	Record 2463	#defaultStyleMap	47.5	-17.5	0	Igneous	Madagascar
Ranomena	Record 2464	#defaultStyleMap	49.1833	-18.0333	0	Igneous	Madagascar
Ambatomitamba	Record 2465	#defaultStyleMap	48.9833	-18.35	0	Metamorphic	Madagascar
Ampangadiatany	Record 2466	#defaultStyleMap	49.2167	-19.4167	0	Metamorphic	Madagascar
Andasifahatelo Mine	Record 2467	#defaultStyleMap	48.4333	-18.9	0	Metamorphic	Madagascar
Antsirakambo	Record 2468	#defaultStyleMap	49.15	-18.4833	0	Metamorphic	Madagascar
Antsiribe	Record 2469	#defaultStyleMap	49.1333	-18.2667	0	Metamorphic	Madagascar
Faliarano	Record 2470	#defaultStyleMap	48.4167	-18.8833	0	Metamorphic	Madagascar
Perinet-Ambatovy area	Record 2472	#defaultStyleMap	48.45	-18.93333	0	Metamorphic	Madagascar
Sahanavo	Record 2474	#defaultStyleMap	48.9167	-18.45	0	Metamorphic	Madagascar
Tamataue	Record 2475	#defaultStyleMap	49.3833	-18.1667	0	Metamorphic	Madagascar
Tsaravoniany	Record 2476	#defaultStyleMap	48.4333	-18.75	0	Metamorphic	Madagascar
Vatomandry	Record 2477	#defaultStyleMap	49.01667	-19.35	0	Metamorphic	Madagascar
Toalagnaro	Record 2480	#defaultStyleMap	47	-25.0167	0	Surficial	Madagascar
Fort Dauphin	Record 2482	#defaultStyleMap	47	-25	0	Surficial	Madagascar
Pebane	Record 2483	#defaultStyleMap	38.16667	-17.33333	0	Surficial	Madagascar
Tamatave	Record 2484	#defaultStyleMap	49.5	-18	0	Surficial	Madagascar
Taolanaro	Record 2485	#defaultStyleMap	47	-25	0	Surficial	Madagascar
Chilwa Island	Record 2487	#defaultStyleMap	35.5667	-15.3167	0	Igneous	Malawi
Chimwadzulu Hill	Record 2488	#defaultStyleMap	34.65	-15.0333	0	Igneous	Malawi
Changalumi	Record 2489	#defaultStyleMap	35.3	-15.38333	0	Sedimentary	Malawi
Sinsinkourou	Record 2494	#defaultStyleMap	-7.4833	11.4167	0	Igneous	Mali
Ansongo	Record 2495	#defaultStyleMap	0.48333	15.66667	0	Sedimentary	Mali
Timerhdoudine	Record 2503	#defaultStyleMap	5.9833	32.9833	0	Hydrothermal	Morocco
Tourtite	Record 2504	#defaultStyleMap	5.8333	32.4833	0	Hydrothermal	Morocco
Jbel Irhoud (Ighoud)	Record 2505	#defaultStyleMap	-9.3	31.8	0	Hydrothermal	Morocco
Seksaoua	Record 2506	#defaultStyleMap	-9.2	30.8961	0	Hydrothermal	Morocco
Tessaout	Record 2507	#defaultStyleMap	-7.5	31.69	0	Hydrothermal	Morocco
Tizi N'Tichka	Record 2508	#defaultStyleMap	-7.4406	31.5	0	Hydrothermal	Morocco
Zelmou (Jbel Zarouk)	Record 2509	#defaultStyleMap	-2.5517	32.1014	0	Hydrothermal	Morocco
Aghbar (Arhbar)	Record 2510	#defaultStyleMap	-6.91667	30.83333	0	Hydrothermal	Morocco
Bou Azzer	Record 2511	#defaultStyleMap	-6.91667	30.53333	0	Hydrothermal	Morocco
Djebel Tirremi	Record 2517	#defaultStyleMap	-3	34.5	0	Hydrothermal	Morocco
Bou Skour	Record 2513	#defaultStyleMap	-6.85	34.0333	0	Hydrothermal	Morocco
El Hammam Area	Record 2518	#defaultStyleMap	-5.55	33.9	0	Hydrothermal	Morocco
Taourirt	Record 2519	#defaultStyleMap	-2.8639	34.41	0	Hydrothermal	Morocco
Tiouine	Record 2520	#defaultStyleMap	-7.25	30.9167	0	Hydrothermal	Morocco
Aoufour	Record 2535	#defaultStyleMap	-8.03333	30.58333	0	Unclassified	Morocco
Idikel	Record 2536	#defaultStyleMap	-8.66667	29.66667	0	Unclassified	Morocco
Tiaratine	Record 2537	#defaultStyleMap	-4.33333	32.58333	0	Unclassified	Morocco
Imini	Record 2538	#defaultStyleMap	-6.9	30.73333	0	Sedimentary	Morocco
Tasdremt	Record 2539	#defaultStyleMap	-8.03333	30.58333	0	Sedimentary	Morocco
Daoui Nord	Record 2540	#defaultStyleMap	-6.55	32.7667	0	Sedimentary	Morocco
Khouribga (Oulad-Abdoun, Meraa-El-Arech, Sidi-Daoui)	Record 2541	#defaultStyleMap	-6.95	32.9	0	Sedimentary	Morocco
Merra El Arech	Record 2542	#defaultStyleMap	-6.7917	32.6667	0	Sedimentary	Morocco
Meskala (Chichaoua)	Record 2543	#defaultStyleMap	-9.4167	31.5333	0	Sedimentary	Morocco
Youssoufia	Record 2544	#defaultStyleMap	-8.5333	32.25	0	Sedimentary	Morocco
Ben-Guerir	Record 2545	#defaultStyleMap	-7.76667	32.25	0	Sedimentary	Morocco
Sidi Daoui	Record 2546	#defaultStyleMap	-6.63333	32.86667	0	Sedimentary	Morocco
Zgounder	Record 2549	#defaultStyleMap	-7.75	30.8	0	Hydrothermal	Morocco
Kettara	Record 2550	#defaultStyleMap	-8	31.81	0	Hydrothermal	Morocco
Taouz	Record 2551	#defaultStyleMap	-3.98333	30.9	0	Unclassified	Morocco
Mavita	Record 2552	#defaultStyleMap	33	-19.5	0	Metamorphic	Mozambique
Macula	Record 2554	#defaultStyleMap	38.4083	-15.9	0	Igneous	Mozambique
Montepuez	Record 2555	#defaultStyleMap	39	-13.11667	0	Sedimentary	Mozambique
Maridge	Record 2556	#defaultStyleMap	38.2125	-15.7125	0	Igneous	Mozambique
Nanro	Record 2557	#defaultStyleMap	38.2625	-15.775	0	Igneous	Mozambique
Nahora (Nahoza)	Record 2558	#defaultStyleMap	38.3333	-15.5792	0	Igneous	Mozambique
Nahia	Record 2559	#defaultStyleMap	38.4972	-15.7875	0	Igneous	Mozambique
Marupine (Marropino)	Record 2560	#defaultStyleMap	37.9167	-16.5	0	Igneous	Mozambique
Muiane (Alto Ligonha)	Record 2561	#defaultStyleMap	38.2542	-15.7375	0	Igneous	Mozambique
Moebase (Moebane)	Record 2562	#defaultStyleMap	38.48333	-17.01667	0	Surficial	Mozambique
Angoche Congolone	Record 2563	#defaultStyleMap	40	-16	0	Surficial	Mozambique
Corridor Sands (Chibuto)	Record 2564	#defaultStyleMap	33.5667	-24.6667	0	Surficial	Mozambique
Quelemane (Quelimane, Zambezi Estuary, Quelemane-Quinga coastline)	Record 2565	#defaultStyleMap	40.3333	-15.75	0	Surficial	Mozambique
Congolone	Record 2566	#defaultStyleMap	39.83333	-16.33333	0	Surficial	Mozambique
Moma (Namalope, Tupuito)	Record 2567	#defaultStyleMap	39.1667	-16.8333	0	Surficial	Mozambique
Fluswa Kohero	Record 2579	#defaultStyleMap	15.1667	-21.8667	0	Hydrothermal	Namibia
Marburg (Okorusu, Belvedere, Brandenburg)	Record 2580	#defaultStyleMap	16.76667	-20.06667	0	Hydrothermal	Namibia
Usakos	Record 2581	#defaultStyleMap	15.6167	-22	0	Igneous	Namibia
Tantalite Valley	Record 2585	#defaultStyleMap	18.8	-28.71667	0	Igneous	Namibia
Otjosondu (Otjosundu, Otjosondo, Otjisondu)	Record 2586	#defaultStyleMap	18.16667	-21.33333	0	Sedimentary	Namibia
Otjisazu	Record 2587	#defaultStyleMap	17.0833	-21.9167	0	Igneous	Namibia
Otjiwalundu (Otjivalunda)	Record 2589	#defaultStyleMap	15.58333	-18.75	0	Sedimentary	Namibia
Uis	Record 2590	#defaultStyleMap	14.8667	-21.2167	0	Igneous	Namibia
Brandberg West	Record 2591	#defaultStyleMap	14.05	-21.02	0	Igneous	Namibia
Walvis Bay	Record 2592	#defaultStyleMap	14.5167	-22.9833	0	Surficial	Namibia
Krantzberg	Record 2593	#defaultStyleMap	15.5	-20.1667	0	Igneous	Namibia
Rossing (Roessing, Swakopmund)	Record 2594	#defaultStyleMap	15.01667	-22.41667	0	Igneous	Namibia
Abenab	Record 2595	#defaultStyleMap	17.32	-19.29	0	Hydrothermal	Namibia
Tapoa	Record 2599	#defaultStyleMap	2.345	12.4217	0	Sedimentary	Niger
Arlit (Somair, Ariège, Arlette, Artois, Jonction Arlette/Artois, Tamou, Takriza)	Record 2600	#defaultStyleMap	7.3333	18.7667	0	Hydrothermal	Niger
Udegi Odegi	Record 2601	#defaultStyleMap	7.8833	8.3333	0	Igneous	Nigeria
Nkalagu	Record 2604	#defaultStyleMap	7.8167	6.5167	0	Sedimentary	Nigeria
Amalgamated Tin	Record 2605	#defaultStyleMap	8.88	9.9	0	Igneous	Nigeria
Bukuru (Jos)	Record 2606	#defaultStyleMap	8.85	9.76	0	Surficial	Nigeria
Somirwa	Record 2609	#defaultStyleMap	30.0667	-1.9	0	Igneous	Rwanda
Ghurayyah	Record 2611	#defaultStyleMap	35.8	27.91667	0	Igneous	Saudi Arabia
Jizan 0677	Record 2619	#defaultStyleMap	42.55	16.88333	0	Sedimentary	Saudi Arabia
Al Amud	Record 2622	#defaultStyleMap	38.96667	30.58333	0	Sedimentary	Saudi Arabia
Al Jalamid	Record 2623	#defaultStyleMap	39.93333	31.53333	0	Sedimentary	Saudi Arabia
Thaniyat	Record 2624	#defaultStyleMap	38	29.66667	0	Sedimentary	Saudi Arabia
Umm Wu'al	Record 2625	#defaultStyleMap	38.86667	31.61667	0	Sedimentary	Saudi Arabia
Umm Wu'al Area	Record 2626	#defaultStyleMap	39.25	31.5	0	Sedimentary	Saudi Arabia
Umm Wu'al North	Record 2627	#defaultStyleMap	39.2	32	0	Sedimentary	Saudi Arabia
West Thaniyat	Record 2628	#defaultStyleMap	38.04583	29.75	0	Sedimentary	Saudi Arabia
Lam Lam	Record 2635	#defaultStyleMap	-16.8333	14.9333	0	Sedimentary	Senegal
Pallo Thies	Record 2636	#defaultStyleMap	-17.0833	14.8	0	Sedimentary	Senegal
Taiba (Tobene, Keur Mor Fall, N'Domor Giop)	Record 2637	#defaultStyleMap	-16.4167	14.75	0	Sedimentary	Senegal
Dalakaru-Worowaia (Dalakuru)	Record 2644	#defaultStyleMap	-11.5167	9.1833	0	Hydrothermal	Sierra Leone
Mogbwemo (Pejebu, Lanti, Gveni, Sembeh)	Record 2651	#defaultStyleMap	-12.7	8.25	0	Surficial	Sierra Leone
Sierra Rutile	Record 2652	#defaultStyleMap	-12.33333	7.66667	0	Surficial	Sierra Leone
Gbangbama-Mogbwemo	Record 2653	#defaultStyleMap	-12.3	7.78333	0	Surficial	Sierra Leone
Rotifunk	Record 2654	#defaultStyleMap	-12.5	8.3333	0	Surficial	Sierra Leone
Darreh Hos	Record 2655	#defaultStyleMap	44.91667	9.98333	0	Igneous	Somalia
Mur Bakayale	Record 2656	#defaultStyleMap	44.86667	10.01667	0	Igneous	Somalia
Mait Island Guano	Record 2657	#defaultStyleMap	47.21667	11.2	0	Surficial	Somalia
Dalan	Record 2658	#defaultStyleMap	48.81667	11.08333	0	Hydrothermal	Somalia
Consolidated Murchison Gravelotte	Record 2659	#defaultStyleMap	31.5167	-24	0	Hydrothermal	South Africa
Consolidated Murchinson	Record 2660	#defaultStyleMap	30.86667	-23.8	0	Hydrothermal	South Africa
African Chrysotilediepgezet	Record 2661	#defaultStyleMap	31.0833	-26	0	Metamorphic	South Africa
Amianthus	Record 2662	#defaultStyleMap	30.75	-25.6333	0	Metamorphic	South Africa
Bute	Record 2664	#defaultStyleMap	23.1667	-26.1167	0	Metamorphic	South Africa
Danielskuil	Record 2665	#defaultStyleMap	23.33333	-28.11667	0	Metamorphic	South Africa
Elcor	Record 2666	#defaultStyleMap	23.0833	-27.2	0	Metamorphic	South Africa
Emmarentia	Record 2667	#defaultStyleMap	23.4667	-28.0333	0	Metamorphic	South Africa
Klipfontien	Record 2668	#defaultStyleMap	23.5	-28	0	Metamorphic	South Africa
Koegaswesterberg	Record 2669	#defaultStyleMap	22.3667	-29.3167	0	Metamorphic	South Africa
Kuruman Field	Record 2670	#defaultStyleMap	23.28333	-27.28333	0	Metamorphic	South Africa
Msauli	Record 2671	#defaultStyleMap	31.0833	-25.9	0	Metamorphic	South Africa
Penge	Record 2672	#defaultStyleMap	30.2833	-24.3833	0	Metamorphic	South Africa
Pomfret	Record 2673	#defaultStyleMap	23.5333	-25.8333	0	Metamorphic	South Africa
Riries	Record 2674	#defaultStyleMap	23.1667	-27.3333	0	Metamorphic	South Africa
Senekal	Record 2675	#defaultStyleMap	31.4667	-25.55	0	Metamorphic	South Africa
Stella	Record 2676	#defaultStyleMap	30.8333	-25.5333	0	Metamorphic	South Africa
Wandrag	Record 2677	#defaultStyleMap	23.2833	-27.3833	0	Metamorphic	South Africa
Whitebank	Record 2678	#defaultStyleMap	23.3	-27.4167	0	Metamorphic	South Africa
Bathlako	Record 2679	#defaultStyleMap	26.9083	-25.1833	0	Igneous	South Africa
Chroombronne	Record 2680	#defaultStyleMap	27.3167	-25.7167	0	Igneous	South Africa
Dilokong	Record 2681	#defaultStyleMap	30.1417	-24.5833	0	Igneous	South Africa
Eastern Bushveld: Steelpoort Sector	Record 2682	#defaultStyleMap	30.13139	-24.53139	0	Igneous	South Africa
Grasvally	Record 2683	#defaultStyleMap	28.98333	-24.33333	0	Igneous	South Africa
Grootboom	Record 2684	#defaultStyleMap	30.16667	-24.75	0	Igneous	South Africa
Kafferskraal 214	Record 2685	#defaultStyleMap	26.25	-25.66667	0	Igneous	South Africa
Mankwe-Bafokeng Sector	Record 2686	#defaultStyleMap	26.92111	-25.18333	0	Igneous	South Africa
Millsell	Record 2687	#defaultStyleMap	27.2917	-25.7083	0	Igneous	South Africa
Montrose Hendriksplaats	Record 2688	#defaultStyleMap	30.15	-24.61667	0	Igneous	South Africa
Mooinooi	Record 2689	#defaultStyleMap	27.5722	-25.71	0	Igneous	South Africa
Nietverdiend-Lehurutshe Sector	Record 2690	#defaultStyleMap	26.25	-25.08333	0	Igneous	South Africa
Nietverdiend-Marico Sector	Record 2691	#defaultStyleMap	26.2	-25	0	Igneous	South Africa
Potgietersrus Sector	Record 2693	#defaultStyleMap	28.97	-24.34278	0	Igneous	South Africa
Ruighoek	Record 2694	#defaultStyleMap	26.93333	-25.2	0	Igneous	South Africa
Waterkop	Record 2695	#defaultStyleMap	30.0167	-24.3583	0	Igneous	South Africa
Winterveld	Record 2696	#defaultStyleMap	30.16667	-24.66667	0	Igneous	South Africa
Zwartkop (Zwartklip, Langran, Elandskool)	Record 2697	#defaultStyleMap	27.28333	-24.78333	0	Igneous	South Africa
Groothoek	Record 2698	#defaultStyleMap	30.16667	-24.53333	0	Igneous	South Africa
Henry Gould	Record 2699	#defaultStyleMap	27.58333	-25.73333	0	Igneous	South Africa
Jagdlust	Record 2700	#defaultStyleMap	29.88333	-24.26667	0	Igneous	South Africa
Kroondal (Booekenhoutfontein, Bultfontein, Rietfontein)	Record 2701	#defaultStyleMap	27.33333	-25.75	0	Igneous	South Africa
Marico	Record 2702	#defaultStyleMap	26.25	-25.08333	0	Igneous	South Africa
Waterkloof	Record 2703	#defaultStyleMap	27.28333	-25.71667	0	Igneous	South Africa
Zeerust	Record 2704	#defaultStyleMap	26.25	-25.05	0	Igneous	South Africa
Dorst Land 768	Record 2705	#defaultStyleMap	28.88333	-23.83333	0	Igneous	South Africa
Tweefontein	Record 2706	#defaultStyleMap	30.125	-24.8958	0	Igneous	South Africa
Piet Retief Witkop 507	Record 2707	#defaultStyleMap	30.7333	-27	0	Igneous	South Africa
Kromdraai	Record 2731	#defaultStyleMap	28.3	-25.25	0	Hydrothermal	South Africa
Kruidfontein	Record 2732	#defaultStyleMap	27.5	-25.1667	0	Hydrothermal	South Africa
Rhenosterfontein	Record 2733	#defaultStyleMap	26.1333	-25.7333	0	Hydrothermal	South Africa
Saflor	Record 2734	#defaultStyleMap	27.8833	-24.8667	0	Hydrothermal	South Africa
Slipfontein-Ruigtepoort	Record 2735	#defaultStyleMap	27.66667	-25	0	Hydrothermal	South Africa
Transvaal Fluorspar	Record 2736	#defaultStyleMap	26.0833	-25.7167	0	Hydrothermal	South Africa
Van Den Heever	Record 2737	#defaultStyleMap	26.2	-25.75	0	Hydrothermal	South Africa
Witkop (Oog van Malmanie, Buffelshoek)	Record 2738	#defaultStyleMap	26.06667	-25.71667	0	Hydrothermal	South Africa
Zwartkloof	Record 2739	#defaultStyleMap	28.25	-24.91667	0	Hydrothermal	South Africa
Vergenoeg (Rust de Winter, Kromdraai)	Record 2740	#defaultStyleMap	28.28333	-25.28333	0	Hydrothermal	South Africa
Marico District	Record 2741	#defaultStyleMap	26.1	-25.75	0	Hydrothermal	South Africa
Buffalo	Record 2742	#defaultStyleMap	28.6	-24.53333	0	Igneous	South Africa
Malonga	Record 2831	#defaultStyleMap	30.88333	-22.65	0	Metamorphic	South Africa
Mooiplaats	Record 2844	#defaultStyleMap	28.075	-25.807	0	Sedimentary	South Africa
Nyala (Mopani)	Record 2845	#defaultStyleMap	30.625	-22.5292	0	Hydrothermal	South Africa
Strathmore	Record 2846	#defaultStyleMap	31.4625	-25.5292	0	Hydrothermal	South Africa
Annex Langdon	Record 2847	#defaultStyleMap	22.9333	-27.2	0	Unclassified	South Africa
Bishop	Record 2848	#defaultStyleMap	22.8333	-27.1667	0	Unclassified	South Africa
Devon	Record 2849	#defaultStyleMap	23	-27.25	0	Unclassified	South Africa
Gloria	Record 2850	#defaultStyleMap	23	-27.3333	0	Unclassified	South Africa
Glouchester	Record 2851	#defaultStyleMap	22.8333	-27.1667	0	Unclassified	South Africa
Gopane (Gopani)	Record 2852	#defaultStyleMap	25.75	-25.25	0	Sedimentary	South Africa
Kalahari Field	Record 2853	#defaultStyleMap	22.95	-27.18333	0	Sedimentary	South Africa
Middelplaats	Record 2854	#defaultStyleMap	22.86667	-27.33333	0	Unclassified	South Africa
N'Chwaning (Kuruman)	Record 2855	#defaultStyleMap	22.8333	-27.1667	0	Sedimentary	South Africa
Paling	Record 2856	#defaultStyleMap	22.8333	-27.1667	0	Unclassified	South Africa
Postmasburg Field	Record 2857	#defaultStyleMap	23.05	-28.05	0	Sedimentary	South Africa
Santoy	Record 2858	#defaultStyleMap	22.8333	-27.1667	0	Unclassified	South Africa
Smartt	Record 2859	#defaultStyleMap	23	-27.3333	0	Unclassified	South Africa
Wessels (Adams, Mamatwan, Hotazel)	Record 2860	#defaultStyleMap	22.86667	-27.1	0	Sedimentary	South Africa
Western Transvaal Manganese	Record 2861	#defaultStyleMap	27.01667	-26.25	0	Sedimentary	South Africa
Black Rock	Record 2862	#defaultStyleMap	27.1667	-22.8333	0	Sedimentary	South Africa
Hotazel	Record 2863	#defaultStyleMap	22.95	-27.21667	0	Sedimentary	South Africa
Lohathla	Record 2864	#defaultStyleMap	23.03333	-28.05	0	Sedimentary	South Africa
Mamatwan	Record 2865	#defaultStyleMap	22.95	-27.38333	0	Sedimentary	South Africa
Mokaning	Record 2866	#defaultStyleMap	23.05	-28.1	0	Sedimentary	South Africa
Monarch Kop (Harrington Kop)	Record 2867	#defaultStyleMap	30.7125	-23.8833	0	Hydrothermal	South Africa
Gumbu	Record 2830	#defaultStyleMap	30.66667	-22.31667	0	Metamorphic	South Africa
Langebaan Area	Record 2902	#defaultStyleMap	18.11667	-32.91	0	Sedimentary	South Africa
Phalaborwa (Palabora, Foskor)	Record 2903	#defaultStyleMap	31.13333	-24	0	Igneous	South Africa
Schiel (Venda)	Record 2904	#defaultStyleMap	30.4	-23.16667	0	Igneous	South Africa
Glenover	Record 2905	#defaultStyleMap	27.13333	-23.86667	0	Igneous	South Africa
Rooiberg (Leeuwpoort, Zanitplaats)	Record 2907	#defaultStyleMap	27.73333	-24.78333	0	Hydrothermal	South Africa
Union Tin	Record 2908	#defaultStyleMap	28.51667	-24.48333	0	Igneous	South Africa
Zaaiplaats	Record 2909	#defaultStyleMap	28.75	-24.05	0	Hydrothermal	South Africa
Brand-Se-Baai (Namakwa)	Record 2910	#defaultStyleMap	17.83333	-31.25	0	Surficial	South Africa
Namaqua Sands	Record 2911	#defaultStyleMap	17.83333	-31.25	0	Surficial	South Africa
Cape Morgan	Record 2912	#defaultStyleMap	28.36667	-32.7	0	Surficial	South Africa
Richards Bay	Record 2913	#defaultStyleMap	31.8	-28.83333	0	Surficial	South Africa
Umgababa (Umkomaas, Usipingo)	Record 2914	#defaultStyleMap	30.85	-30.13333	0	Surficial	South Africa
Orange River Belt West	Record 2915	#defaultStyleMap	17.88333	-28.93333	0	Unclassified	South Africa
Wallekraal	Record 2916	#defaultStyleMap	16.86944	-28.33333	0	Hydrothermal	South Africa
Wolfram Schist Belt	Record 2917	#defaultStyleMap	17.83333	-29.58333	0	Unclassified	South Africa
Orange River Belt East	Record 2918	#defaultStyleMap	20.5	-28.53333	0	Unclassified	South Africa
Afrikander Lease Ltd.	Record 2919	#defaultStyleMap	26.5	-26.88333	0	Surficial	South Africa
Oryx (Beisa)	Record 2920	#defaultStyleMap	26.7042	-28.2167	0	Surficial	South Africa
Brits	Record 2921	#defaultStyleMap	27.7833	-25.65	0	Igneous	South Africa
Kef Eddour	Record 2985	#defaultStyleMap	8.4167	34.15	0	Sedimentary	Tunisia
North Natal Coast	Record 2927	#defaultStyleMap	32.16667	-28.7	0	Surficial	South Africa
Umbababa	Record 2928	#defaultStyleMap	30.85	-30.13333	0	Surficial	South Africa
West Cape Coast	Record 2929	#defaultStyleMap	17.6	-30.6	0	Surficial	South Africa
Ingessana Hills (Nile Mining Operation)	Record 2930	#defaultStyleMap	34	11.28333	0	Igneous	Sudan
Kreiter	Record 2931	#defaultStyleMap	33.9667	11.4517	0	Igneous	Sudan
Gege	Record 2937	#defaultStyleMap	31.0167	-27.0333	0	Sedimentary	Swaziland
Havelock	Record 2936	#defaultStyleMap	31.1333	-25.9333	0	Metamorphic	Swaziland
Dwaleni	Record 2939	#defaultStyleMap	31.3661	-26.6161	0	Unclassified	Swaziland
Forbes Reef	Record 2940	#defaultStyleMap	31.1	-26.1831	0	Unclassified	Swaziland
Eastern A and B (Sawwaneh)	Record 2941	#defaultStyleMap	36.7	34.71667	0	Sedimentary	Syria
Panda Hill	Record 2943	#defaultStyleMap	33.2375	-8.9875	0	Igneous	Tanzania
Merelani	Record 2947	#defaultStyleMap	37.03333	-3.56667	0	Igneous	Tanzania
Chambogo	Record 2951	#defaultStyleMap	37.73333	-4.06667	0	Igneous	Tanzania
Lugalla Hill	Record 2952	#defaultStyleMap	37.72	-6.75	0	Unclassified	Tanzania
Gelai	Record 2953	#defaultStyleMap	36.02	-2.63	0	Igneous	Tanzania
Merkerstein Hill Deposit	Record 2954	#defaultStyleMap	36.5	-2.7281	0	Metamorphic	Tanzania
Minjingu	Record 2955	#defaultStyleMap	35.99861	-3.6667	0	Sedimentary	Tanzania
Lake Natron	Record 2957	#defaultStyleMap	36.1667	-2.35	0	Sedimentary	Tanzania
Kaborishoke (Kwerya, Kyerwa)	Record 2958	#defaultStyleMap	30.7944	-1.3667	0	Hydrothermal	Tanzania
Liganga (Ligangu)	Record 2959	#defaultStyleMap	34.93	-9.9	0	Igneous	Tanzania
Sanyang (Batukunku, Kartung)	Record 2960	#defaultStyleMap	-16.8	13.25	0	Surficial	The Gambia
Mt. Ahito	Record 2961	#defaultStyleMap	-0.9333	7.2583	0	Igneous	Togo
Hahotoe-Kpogame	Record 2962	#defaultStyleMap	1.3833	6.3667	0	Sedimentary	Togo
Djebel Oust	Record 2963	#defaultStyleMap	10.4583	26.5833	0	Hydrothermal	Tunisia
Djebel Sta	Record 2964	#defaultStyleMap	10.4583	26.5833	0	Hydrothermal	Tunisia
Hammam Zriba	Record 2965	#defaultStyleMap	10.1333	36.4	0	Hydrothermal	Tunisia
Zariba	Record 2966	#defaultStyleMap	10.15	36.4	0	Hydrothermal	Tunisia
Kef Eschfair	Record 2986	#defaultStyleMap	8.4667	34.3833	0	Sedimentary	Tunisia
M'Dilla	Record 2987	#defaultStyleMap	8.7667	34.3	0	Sedimentary	Tunisia
Metlaoui	Record 2988	#defaultStyleMap	8.4167	34.3167	0	Sedimentary	Tunisia
Moulares (Moulanes)	Record 2989	#defaultStyleMap	8.2667	34.4833	0	Sedimentary	Tunisia
M'Rata	Record 2990	#defaultStyleMap	8.2667	34.4833	0	Sedimentary	Tunisia
Oum El Khecheb	Record 2991	#defaultStyleMap	8.4167	34.15	0	Sedimentary	Tunisia
Redeyef	Record 2992	#defaultStyleMap	8.4167	34.3667	0	Sedimentary	Tunisia
Sra Ouertane (Kef)	Record 2993	#defaultStyleMap	9.5003	36.5003	0	Sedimentary	Tunisia
Kalaa Khasba	Record 2994	#defaultStyleMap	8.58333	35.68333	0	Unclassified	Tunisia
Sehib	Record 2995	#defaultStyleMap	8.69028	34.20444	0	Unclassified	Tunisia
Bigadic District (Acep, Ankara, Begendikler, Salmanli, others)	Record 2997	#defaultStyleMap	28.18333	39.46667	0	Sedimentary	Turkey
Emet (Derekoy, Espey, Goktepe, Hamamkoy, Hisarcik, Killik)	Record 2998	#defaultStyleMap	29.3	39.26667	0	Sedimentary	Turkey
Kestelek	Record 2999	#defaultStyleMap	28.75	39.66667	0	Sedimentary	Turkey
Kirka	Record 3000	#defaultStyleMap	30.5	39.33333	0	Sedimentary	Turkey
Guleman Mining Area (Bati Kef and Kefdag)	Record 3001	#defaultStyleMap	39.9	38.41667	0	Igneous	Turkey
Kopdag Mining Area	Record 3002	#defaultStyleMap	40.46667	40.01667	0	Igneous	Turkey
Koycegiz	Record 3003	#defaultStyleMap	28.6667	36.95	0	Igneous	Turkey
Bingöl and Bitlis Area	Record 3013	#defaultStyleMap	40.5	38.75	0	Hydrothermal	Turkey
Mazidagi	Record 3014	#defaultStyleMap	40.5	37.51667	0	Sedimentary	Turkey
Beypazari (Baypazari)	Record 3015	#defaultStyleMap	31.93333	40.16667	0	Sedimentary	Turkey
